,Station Name,Available Bikes,Empty Slots,Latitude,Longitude
0,W 100 St & Manhattan Ave,33,0,40.795,-73.9645
1,7 Ave & Central Park South,5,64,40.7667405590595,-73.9790689945221
2,Bedford Ave & Bergen St,4,14,40.676368,-73.952918
3,28 St & 41 Ave,4,18,40.751047,-73.93797
4,Frederick Douglass Blvd & W 112 St,32,0,40.801694,-73.957145
5,3 Ave & E 112 St,19,0,40.795508,-73.941606
6,8 Ave & W 31 St,61,26,40.7505853470215,-73.9946848154068
7,Bergen St & Vanderbilt Ave,8,12,40.6794388,-73.9680438
8,Monroe St & Bedford Ave,16,2,40.6851443,-73.95380904
9,35 Ave & 37 St,21,8,40.7557327,-73.9236611
10,Bank St & Hudson St,20,3,40.73652889,-74.00618026
11,Greenwich St & W Houston St,46,21,40.728846,-74.008591
12,Madison St & Clinton St,18,20,40.71269042,-73.98776323
13,Stanton St & Mangin St,7,9,40.71782143,-73.97628939
14,Clinton Ave & Flushing Ave,11,8,40.69794,-73.96986848
15,Rivington St & Ridge St,28,18,40.71850211,-73.98329859
16,E 114 St & 1 Ave,22,0,40.7945663,-73.9362541
17,Columbia St & Lorraine St,33,3,40.6747055,-74.0075572
18,11 Ave & W 41 St,44,3,40.76030096,-73.99884222
19,Riverside Dr & W 104 St,48,2,40.8013434,-73.9711457439
20,Dwight St & Van Dyke St,15,7,40.67363551341504,-74.01195555925369
21,E 97 St & Madison Ave,13,27,40.787801,-73.953559
22,Union St & 4 Ave,18,7,40.6772744,-73.98282002
23,Berkeley Pl & 6 Ave,31,8,40.6765304,-73.97846879
24,Waterbury St & Stagg St,10,11,40.71019,-73.93734
25,3 Ave & Schermerhorn St,21,7,40.68683208,-73.9796772
26,Pike St & E Broadway,25,4,40.71406667,-73.99293911
27,Lafayette St & E 8 St,1,99,40.73020660529954,-73.99102628231049
28,Knickerbocker Ave & Thames St,13,5,40.70539,-73.92976
29,Devoe St & Morgan Ave,2,15,40.713811,-73.93515
30,McKibbin St & Bogart St,29,0,40.706237,-73.933871
31,Central Ave & Flushing Ave,12,5,40.702831,-73.9333
32,Central Ave & Starr Street,8,15,40.700003,-73.92834
33,Knickerbocker Ave & George St,18,1,40.704425,-73.92836
34,Irving Ave & DeKalb Ave,22,3,40.7027,-73.92095
35,Adelphi St & Myrtle Ave,25,1,40.69308257,-73.97178913
36,1 Ave & E 68 St,0,51,40.76500525,-73.95818491
37,1 Ave & E 62 St,19,15,40.7612274,-73.96094022
38,5 Ave & E 78 St,12,30,40.77632142182271,-73.96427392959595
39,Washington Ave & Greene Ave,10,4,40.68650065,-73.96563307
40,Concord St & Bridge St,9,10,40.69766564,-73.98476437
41,Glenwood Ave,12,4,40.72755146730012,-74.07106071710587
42,Jay St & York St,18,19,40.701403172577244,-73.98672670125961
43,E 106 St & Madison Ave,18,0,40.7934337,-73.94945003
44,Smith St & 3 St,22,0,40.6787242,-73.99599099
45,Cathedral Pkwy & Broadway,18,2,40.804213,-73.96699104
46,3 St & Hoyt St,39,11,40.6777287,-73.99364123
47,W 34 St & 11 Ave,3,73,40.75594159,-74.0021163
48,E 33 St & 5 Ave,0,50,40.74765947,-73.98490707
49,E 51 St & Lexington Ave,5,68,40.75714758,-73.97207836
50,2 Ave & E 31 St,27,26,40.74290902,-73.97706058
51,St Johns Pl & Washington Ave,10,15,40.6737236,-73.9631611
52,Underhill Ave & Lincoln Pl,7,12,40.6740123,-73.9671457
53,Lincoln Pl & Classon Ave,3,24,40.6721683,-73.9609
54,Union St & Bedford Ave,2,21,40.6691783,-73.9554162
55,34 Ave & 13 St,15,1,40.7638753,-73.9364848
56,Bedford Ave & S 9 St,16,6,40.70853074,-73.96408963
57,E 45 St & 3 Ave,2,39,40.75255434,-73.97282625
58,E 10 St & Avenue A,67,0,40.72740794,-73.98142006
59,3 Ave & E 71 St,17,17,40.76873687,-73.96119945
60,E 81 St & York Ave,39,2,40.7728384,-73.94989233
61,Union Ave & N 12 St,22,12,40.71924,-73.95242
62,Graham Ave & Herbert St,20,3,40.71929301,-73.94500379
63,Hancock St & Bedford Ave,18,6,40.68216564,-73.95399026
64,Macon St & Nostrand Ave,4,18,40.6809833854,-73.9500479759
65,W 21 St & 6 Ave,4,61,40.74173969,-73.99415556
66,Irving Ave & Jefferson St,2,16,40.70538,-73.92535
67,Washington Pl & Broadway,1,23,40.72903917,-73.99404649
68,W 20 St & 7 Ave,33,2,40.74238787,-73.99726235
69,Pike St & Monroe St,11,13,40.71173107,-73.99193043
70,Reade St & Broadway,3,54,40.71450451,-74.00562789
71,Cherry St,28,0,40.71219906,-73.97948148
72,Warren St & Court St,20,8,40.686371,-73.99383324
73,E 98 St & Park Ave,7,17,40.78813,-73.95206
74,E 93 St & 2 Ave,65,0,40.782454175279874,-73.9489196240902
75,W 92 St & Broadway,12,9,40.7921,-73.9739
76,Bayard St & Leonard St,41,1,40.71915571696044,-73.94885390996933
77,Devoe St & Lorimer St,12,4,40.71335226222875,-73.9491033554077
78,Lenox Ave & W 126 St,15,15,40.808442,-73.9452087
79,Jackson St & Leonard St,14,2,40.71638031973561,-73.94821286201477
80,Leonard St & Maujer St,20,1,40.7103685423523,-73.94705951213837
81,31 St & Hoyt Ave N,20,14,40.7711528,-73.9170074
82,Astoria Park S & Shore Blvd,17,13,40.7767,-73.927631
83,St Nicholas Ave & Manhattan Ave,26,3,40.809725,-73.953149
84,Oakland Ave,8,17,40.7376037,-74.0524783
85,Hilltop,11,15,40.7311689,-74.0575736
86,Hamilton Park,26,0,40.727595966,-74.044247311
87,Newport PATH,0,17,40.7272235,-74.0337589
88,Brunswick St,18,3,40.7241765,-74.0506564
89,Broadway & Whipple St,6,16,40.7016657,-73.9437303
90,Willoughby St & Fleet St,16,43,40.69196566,-73.9813018
91,Washington St,0,17,40.7242941,-74.0354826
92,Harborside,20,9,40.7192517,-74.034234
93,31 St & Newtown Ave,7,29,40.7675487799971,-73.9209334552288
94,Frederick Douglass Blvd & W 115 St,30,0,40.8038654,-73.9559308
95,Nostrand Ave & Myrtle Ave,17,1,40.69527008,-73.95238108
96,Myrtle Ave & Marcy Ave,19,0,40.69539817,-73.94954908
97,Throop Ave & Myrtle Ave,9,12,40.69622937,-73.94371094
98,Bank St & Washington St,19,7,40.7361967,-74.00859207
99,Union Ave & Wallabout St,15,13,40.70029511,-73.95032283
100,Lorimer St & Broadway,20,5,40.70411791,-73.94818595
101,Coffey St & Conover St,22,9,40.677236,-74.015665
102,Humboldt St & Varet St,19,16,40.7031724,-73.940636
103,Pioneer St & Richards St,6,17,40.6777748,-74.0094613
104,Van Brunt St & Wolcott St,17,18,40.6773429,-74.01275056
105,Pioneer St & Van Brunt St,8,29,40.679043,-74.011169
106,Clinton St & Joralemon St,17,29,40.69239502,-73.99337909
107,W 13 St & 5 Ave,1,38,40.735445,-73.99431
108,47 Ave & Skillman Ave,16,3,40.7437524099784,-73.94176483154297
109,Vernon Blvd & 50 Ave,13,31,40.74232744,-73.95411749
110,Franklin St & Dupont St,21,2,40.73564,-73.95866
111,Milton St & Franklin St,21,6,40.72906,-73.95779
112,Meserole Ave & Manhattan Ave,17,6,40.72708584,-73.95299117
113,31 St & Broadway,3,31,40.761584,-73.925921
114,Crescent St & Broadway,14,1,40.7633589,-73.9286471
115,7 Ave & Park Pl,5,18,40.6776147,-73.97324283
116,Bergen St & Smith St,19,26,40.6867443,-73.99063168
117,Dean St & Hoyt St,54,22,40.6864442,-73.98759104
118,Bond St & Bergen St,18,8,40.6849668,-73.98620772
119,E 16 St & 5 Ave,3,50,40.73726186,-73.99238967
120,10 St & 2 Ave,14,3,40.671907,-73.993612
121,Hoboken Ave at Monmouth St,24,7,40.73520838045357,-74.04696375131607
122,Henry St & Middagh St,15,12,40.7003,-73.991581
123,Allen St & Rivington St,10,23,40.72019576,-73.98997825
124,Market St & Cherry St,35,8,40.71076228,-73.99400398
125,Newton Rd & 44 St,3,14,40.7595701,-73.9142678
126,28 St & 36 Ave,6,22,40.757186,-73.932719
127,Verona Pl & Fulton St,4,15,40.6803560840434,-73.9476791024208
128,37 Ave & 35 St,8,16,40.7531106,-73.9279917
129,Crescent St & 35 Ave,22,2,40.7596276,-73.9321455
130,21 St & 36 Ave,19,0,40.7601853,-73.9362726
131,36 Ave & 10 St,13,5,40.7614376,-73.9411265
132,Monroe St & Tompkins Ave,16,0,40.686203,-73.944694
133,Franklin Ave & St Marks Ave,19,2,40.6758324,-73.9561677
134,Willoughby Ave & Walworth St,17,0,40.69331716,-73.95381995
135,Franklin Ave & Myrtle Ave,23,1,40.694546087246025,-73.95801365375519
136,6 Ave & Canal St,35,37,40.72243797,-74.00566443
137,John St & William St,27,13,40.70862144,-74.00722156
138,Duffield St & Willoughby St,10,35,40.69221589,-73.9842844
139,Lefferts Pl & Franklin Ave,8,12,40.680342423,-73.9557689392
140,St James Pl & Pearl St,16,7,40.71117416,-74.00016545
141,Atlantic Ave & Fort Greene Pl,43,15,40.68382604,-73.97632328
142,Lafayette Ave & St James Pl,18,18,40.68851534,-73.9647628
143,Atlantic Ave & Furman St,14,7,40.69165183,-73.9999786
144,Columbus Ave & W 103 St,20,14,40.7969347,-73.9643412291
145,Butler St & Court St,30,4,40.6849894,-73.99440329
146,Prospect Park West & 8 St,14,4,40.66514681533792,-73.97637605667114
147,Flushing Ave & Vanderbilt Ave,12,10,40.697950315695444,-73.97077560424805
148,North Moore St & Greenwich St,2,23,40.72019521437465,-74.0103006362915
149,Montgomery St & Franklin Ave,9,8,40.666439306870814,-73.9605563879013
150,36 Ave & 31 St,8,17,40.75651272984955,-73.92957486212252
151,Leonard St & Nassau Ave,27,4,40.7239567849954,-73.94984364509583
152,Myrtle Ave & St Edwards St,41,13,40.69327018,-73.97703874
153,Willoughby Ave & Hall St,28,10,40.69196035,-73.96536851
154,Perry St & Bleecker St,43,28,40.73535398,-74.00483091
155,DeKalb Ave & S Portland Ave,14,4,40.68981035,-73.97493121
156,E 72 St & York Ave,4,24,40.76663814,-73.95348296
157,W 67 St & Broadway,9,15,40.77492513,-73.98266566
158,Harrison St & Hudson St,6,29,40.71870987,-74.0090009
159,Laight St & Hudson St,12,71,40.72185379,-74.00771779
160,E 106 St & 1 Ave,18,5,40.7892529,-73.93956237
161,Richards St & Delavan St,8,8,40.6794327,-74.00785041
162,Commerce St & Van Brunt St,12,5,40.6812117,-74.00860912
163,Henry St & W 9 St,18,1,40.6763744,-74.00324957
164,Columbia St & W 9 St,15,2,40.6769993,-74.00647134
165,Court St & Nelson St,31,0,40.6763947,-73.99869893
166,Clinton St & 4 Place,23,0,40.6783563,-74.00014502
167,7 St & 3 Ave,14,5,40.67260298150126,-73.98983001708984
168,Smith St & 9 St,18,1,40.6746957,-73.99785768
169,W 43 St & 10 Ave,87,21,40.76009437,-73.99461843
170,12 Ave & W 40 St,61,7,40.76087502,-74.00277668
171,11 Ave & W 27 St,23,15,40.751396,-74.005226
172,21 St & 31 Dr,17,0,40.7659,-73.930819
173,Carroll St & Franklin Ave,5,10,40.6679411,-73.9588
174,Sullivan Pl & Bedford Ave,4,12,40.6642406,-73.9574686
175,35 St & Broadway,9,7,40.760339,-73.9222427
176,W 22 St & 8 Ave,31,27,40.74475148,-73.99915362
177,E 51 St & 1 Ave,8,22,40.75455731,-73.96592976
178,E 25 St & 1 Ave,20,8,40.7381765,-73.97738662
179,Park Pl & Church St,14,37,40.71334184275907,-74.00935515761375
180,N 11 St & Kent Ave,19,6,40.72248188638219,-73.95921930670738
181,Jackson Square,6,9,40.71113,-74.0789
182,W 64 St & Thelonious Monk Circle,30,1,40.77515953434235,-73.98918695747852
183,Union Ave & Jackson St,8,9,40.7160751,-73.952029
184,Roebling St & N 4 St,15,4,40.71469,-73.95739
185,Metropolitan Ave & Meeker Ave,23,2,40.71413311,-73.95234386
186,Graham Ave & Grand St,13,11,40.711863,-73.944024
187,S 4 St & Rodney St,3,17,40.70934,-73.95608
188,Hope St & Union Ave,23,1,40.71167351,-73.95141312
189,Riverview Park,9,7,40.7443187,-74.0439909
190,19 St & 24 Ave,16,6,40.7774552,-73.9225403
191,23 Ave & 27 St,10,10,40.776165,-73.9153175
192,37 St & 24 Ave,4,13,40.7701477,-73.9120938
193,24 Ave & 29 St,30,11,40.7729,-73.916142
194,W 90 St & Amsterdam Ave,19,10,40.79017948095081,-73.97288918495178
195,W 89 St & Columbus Ave,35,2,40.7882213,-73.97041561
196,Leonard Gordon Park,8,6,40.74590996631558,-74.0572714805603
197,Astor Place,9,5,40.71928220070702,-74.07126188278198
198,Morningside Dr & Amsterdam Ave,30,3,40.81028506306003,-73.95736455917358
199,W 52 St & 6 Ave,0,55,40.76132983124814,-73.97982001304626
200,Bergen Ave,9,4,40.722103786686034,-74.07145500183105
201,E 60 St & York Ave,20,7,40.759107,-73.959223
202,E 84 St & Park Ave,21,18,40.77862688,-73.95772073
203,E 81 St & 3 Ave,21,23,40.77573034,-73.9567526
204,5 Corners Library,5,12,40.734961020009514,-74.0595030784607
205,Dean St & Franklin Ave,12,5,40.67759206937376,-73.955637216568
206,Lincoln Park,8,8,40.7246050998869,-74.07840594649315
207,E 67 St & Park Ave,1,33,40.76780080148132,-73.96592080593109
208,W 42 St & Dyer Ave,25,2,40.75898481399634,-73.99379968643188
209,Lawrence St & Willoughby St,3,29,40.69236178,-73.98631746
210,Cadman Plaza E & Red Cross Pl,26,13,40.69991755,-73.98971773
211,Vesey Pl & River Terrace,24,30,40.7153379,-74.01658354
212,DeKalb Ave & Hudson Ave,57,6,40.689888,-73.981013
213,Watts St & Greenwich St,23,8,40.72405549,-74.00965965
214,Lenox Ave & W 117 St,23,3,40.8025566,-73.9490782
215,W 120 St & Claremont Ave,9,23,40.8109494,-73.9634
216,E 128 St & Madison Ave,19,0,40.80756,-73.939182
217,E 66 St & Madison Ave,1,21,40.76800889305947,-73.96845281124115
218,3 St & Prospect Park West,22,6,40.668132,-73.97363831
219,W 106 St & Amsterdam Ave,26,4,40.8008363,-73.9664492472
220,Amsterdam Ave & W 66 St,15,3,40.7746671,-73.98470567
221,E 102 St & 1 Ave,14,3,40.7869946,-73.94164802
222,Lewis Ave & Kosciuszko St,16,8,40.69237074,-73.93705428
223,Pulaski St & Marcus Garvey Blvd,14,3,40.6933982,-73.939877
224,Kosciuszko St & Nostrand Ave,15,0,40.69072549,-73.95133465
225,Kosciuszko St & Tompkins Ave,15,1,40.69128258,-73.9452416
226,Greene Ave & Throop Ave,15,0,40.6894932,-73.942061
227,Greene Ave & Nostrand Ave,21,0,40.6883337,-73.950916
228,Marcy Ave & Lafayette Ave,20,0,40.6900815,-73.947915
229,Putnam Ave & Throop Ave,19,0,40.6851532,-73.94111
230,Park Ave & Marcus Garvey Blvd,12,10,40.698617,-73.941342
231,Riverside Dr & W 78 St,24,53,40.78414472,-73.98362492
232,Driggs Ave & N 9 St,39,9,40.71816969454208,-73.95520135760307
233,40 Ave & Crescent St,1,20,40.753599202005596,-73.93795609474182
234,E 13 St & Avenue A,26,59,40.72966729392978,-73.98067966103554
235,Pleasant Ave & E 120 St,12,0,40.7974772,-73.9311847
236,1 Ave & E 110 St,23,1,40.7923272,-73.9383
237,E 115 St & Lexington Ave,22,1,40.797911,-73.9423
238,E 48 St & 3 Ave,1,77,40.7546011026,-73.971878855
239,31 St & Northern Blvd,12,21,40.75186951421875,-73.93349289894103
240,E 2 St & Avenue A,28,3,40.72307749068673,-73.98583620786667
241,21 St & 43 Ave,21,5,40.75052534,-73.94594845
242,Queens Plaza North & Crescent St,8,24,40.75110165,-73.94073717
243,48 Ave & 5 St,70,8,40.744363287066875,-73.9558732509613
244,Jackson Ave & 46 Rd,16,9,40.74524768,-73.94733276
245,44 Dr & Jackson Ave,5,26,40.74718234,-73.9432635
246,46 Ave & 5 St,39,0,40.74731,-73.95451
247,45 Rd & 11 St,16,5,40.74708586,-73.94977234
248,Steinway St & 23 Ave,6,11,40.7713937,-73.9077436
249,E 23 St & 1 Ave,23,0,40.736502,-73.97809472
250,Lenox Ave & W 130 St,17,1,40.8107922,-73.9430681
251,Court St & State St,15,0,40.6902375,-73.99203074
252,5 St & 6 Ave,6,14,40.6704836,-73.98208968
253,7 St & 5 Ave,21,1,40.6704922,-73.98541675
254,Barrow St & Hudson St,33,8,40.73172428,-74.00674436
255,Clinton St & Union St,33,5,40.6831164,-73.99785267
256,Cumberland St & Lafayette Ave,9,18,40.68753406,-73.97265183
257,Barclay St & Church St,16,20,40.71291224,-74.01020234
258,E 6 St & Avenue D,3,40,40.72228087,-73.97668709
259,Forsyth St & Canal St,13,11,40.7158155,-73.99422366
260,Pacific St & Nevins St,6,12,40.6853761,-73.98302136
261,Front St & Gold St,31,2,40.70224,-73.982578
262,Fulton St & Broadway,14,32,40.711066,-74.009447
263,Washington Ave & Park Ave,47,3,40.69610226,-73.96751037
264,Allen St & Stanton St,33,11,40.722055,-73.989111
265,Norfolk St & Broome St,19,23,40.7172274,-73.98802084
266,South St & Gouverneur Ln,32,10,40.70355377,-74.00670227
267,Marin Light Rail,24,1,40.71458403535893,-74.04281705617905
268,Communipaw & Berry Lane,12,0,40.71435836870427,-74.06661093235016
269,Columbus Drive,1,11,40.71835519823214,-74.03891444206238
270,Jersey & 3rd,5,8,40.72333158646436,-74.04595255851744
271,Manila & 1st,1,17,40.721650724879986,-74.04288411140442
272,Jersey & 6th St,13,1,40.72528910781132,-74.04557168483734
273,Monmouth and 6th,11,0,40.72568548362901,-74.04879033565521
274,Dixon Mills,13,5,40.721630142638354,-74.04996782541275
275,Sterling Pl & Bedford Ave,7,12,40.672695,-73.954131
276,W 15 St & 10 Ave,2,49,40.742753828659026,-74.00747358798981
277,Crescent St & 34 Ave,21,3,40.76108,-73.930562
278,Prospect Pl & Underhill Ave,8,11,40.6769694,-73.96579
279,34 Ave & 21 St,23,0,40.7628138,-73.9342862
280,2 Ave & 36 St,23,16,40.65708866668485,-74.00870203971863
281,35 St & 34 Ave,10,13,40.7580583,-73.9242751
282,34 Ave & 38 St,8,23,40.756913,-73.921631
283,Vernon Blvd & 10 St,32,8,40.7671863,-73.9373554
284,Washington Pl & 6 Ave,33,40,40.73224119,-74.00026394
285,Lafayette Ave & Classon Ave,25,0,40.68900443,-73.96023854
286,Douglass St & 4 Ave,43,3,40.6792788,-73.98154004
287,Broadway & W 37 St,44,11,40.75172632,-73.98753523
288,William St & Pine St,6,48,40.70717936,-74.00887308
289,Degraw St & Hoyt St,18,5,40.681990442707026,-73.99079024791718
290,2 Ave & E 96 St,33,4,40.7839636,-73.9471673
291,Centre St & Worth St,22,48,40.71494807,-74.00234482
292,Centre St & Chambers St,25,28,40.71273266,-74.0046073
293,W 26 St & 10 Ave,16,30,40.749717753,-74.002950346
294,6 Ave & 12 St,12,12,40.6663181,-73.9854617
295,1 Ave & E 94 St,35,3,40.7817212,-73.94594
296,Henry St & Degraw St,21,0,40.6847514,-73.99917254
297,10 St & 5 Ave,7,13,40.6686273,-73.98700053
298,14 St & 5 Ave,12,5,40.666287,-73.98895053
299,21 St & Queens Plaza North,31,0,40.75325964,-73.94335788
300,Vernon Blvd & 47 Rd,20,5,40.7449067,-73.9534573
301,30 Ave & 21 St,12,2,40.7703743,-73.9286078
302,Center Blvd & 48 Ave,18,7,40.745038,-73.957539
303,Crescent St & 30 Ave,6,12,40.768692,-73.9249574
304,Steinway St & 28 Ave,14,7,40.7656251,-73.9136695
305,28 Ave & 35 St,8,18,40.7671,-73.9169858
306,27 St & Hunter St,9,19,40.7485,-73.941275
307,Newtown Ave & 23 St,20,3,40.7713615,-73.9246145
308,DeKalb Ave & Franklin Ave,15,0,40.69064807082943,-73.95746178925037
309,Stagg St & Morgan Ave,13,9,40.710681,-73.93372
310,White St & Moore St,17,3,40.704508,-73.9351
311,Columbia St & Kane St,18,0,40.68763155,-74.0016256
312,DeKalb Ave & Vanderbilt Ave,11,8,40.68940747,-73.96885458
313,South St & Whitehall St,21,27,40.70122128,-74.01234218
314,MacDougal St & Washington Sq,16,5,40.73226398,-73.99852205
315,Amsterdam Ave & W 73 St,29,15,40.77966809007312,-73.98093044757842
316,Columbus Ave & W 72 St,8,51,40.7770575,-73.97898475
317,Mott St & Prince St,31,6,40.72317958,-73.99480012
318,Lispenard St & Broadway,48,30,40.71939226,-74.00247214
319,W 11 St & 6 Ave,9,33,40.73532427,-73.99800419
320,W 76 St & Columbus Ave,33,20,40.7801839724239,-73.97728532552719
321,5 Ave & 3 St,24,2,40.6728155,-73.98352355
322,E 82 St & East End Ave,24,2,40.7724607,-73.9468208
323,Carroll St & 5 Ave,19,6,40.6751622,-73.9814832
324,3 St & 7 Ave,11,13,40.6703837,-73.97839676
325,West End Ave & W 107 St,19,6,40.8021174,-73.9681805305
326,5 Ave & E 103 St,9,25,40.7922553,-73.95249933
327,E 102 St & Park Ave,11,19,40.7904828,-73.95033068
328,6 Ave & W 33 St,1,58,40.74901271,-73.98848395
329,Broadway & W 51 St,1,73,40.76228826,-73.98336183
330,FDR Drive & E 35 St,62,48,40.744219,-73.97121214
331,W 25 St & 6 Ave,13,27,40.74395411,-73.99144871
332,E 47 St & 2 Ave,30,70,40.75323098,-73.97032517
333,2 Ave & E 72 St,29,15,40.7687620293096,-73.95840793848038
334,W 104 St & Amsterdam Ave,31,7,40.799041392882984,-73.96649479866028
335,Grand St,10,7,40.71517767732029,-74.03768330812454
336,E 77 St & 3 Ave,21,22,40.77314236,-73.95856158
337,E 27 St & 1 Ave,6,78,40.739445,-73.976806
338,Frederick Douglass Blvd & W 129 St,21,4,40.8125511,-73.9492286
339,Crescent St & Ditmars Blvd,2,12,40.7787185,-73.9145645
340,St. Nicholas Ave & W 126 St,22,6,40.8114323,-73.9518776
341,Frederick Douglass Blvd & W 117 St,34,0,40.805159,-73.954692
342,W 116 St & Broadway,2,34,40.8082,-73.9641
343,W 116 St & Amsterdam Ave,1,29,40.8067581,-73.9607082
344,W 110 St & Amsterdam Ave,28,12,40.802692,-73.96295
345,Lenox Ave & W 111 St,31,0,40.7987859,-73.9523
346,Paulus Hook,0,11,40.7141454,-74.0335519
347,City Hall,0,19,40.7177325,-74.043845
348,Warren St,2,18,40.7211236,-74.03805095
349,Graham Ave & Withers St,12,3,40.7169811,-73.94485918
350,E 4 St & 2 Ave,32,42,40.7262807,-73.98978041
351,Carroll St & Washington Ave,18,8,40.6686744,-73.9618148
352,Lexington Ave & E 120 St,25,0,40.8013066,-73.9398167
353,Pacific St & Classon Ave,11,9,40.6791944,-73.9587903
354,Broadway & Moylan Pl,33,4,40.8143256,-73.9590255
355,Morningside Ave & W 123 St,29,0,40.81,-73.9551508
356,3 Ave & E 62 St,0,43,40.76312584,-73.96526895
357,Baldwin at Montgomery,9,4,40.7236589,-74.0641943
358,47 Ave & 31 St,13,12,40.743,-73.93561
359,5 Ave & E 72 St,4,19,40.77282817,-73.96685276
360,Bayard St & Baxter St,29,8,40.71602118,-73.99974372
361,Emerson Pl & Myrtle Ave,35,25,40.69363137,-73.96223558
362,S Portland Ave & Hanson Pl,5,13,40.68539567,-73.97431458
363,Clinton St & Grand St,44,11,40.71559509,-73.9870295
364,Christopher St & Greenwich St,69,2,40.73291553,-74.00711384
365,Columbia Heights & Cranberry St,12,23,40.70037867,-73.99548059
366,W 16 St & The High Line,23,0,40.74334935,-74.00681753
367,W 129 St & Convent Ave,11,17,40.814394437915816,-73.95324736833572
368,George St & Wilson Ave,11,6,40.702997,-73.92997
369,Cambridge Pl & Gates Ave,8,7,40.68488,-73.96304
370,W 106 St & Central Park West,52,0,40.7981856,-73.9605909006
371,Clinton St & Centre St,18,2,40.67434,-74.00194698
372,3 Ave & E 100 St,23,1,40.7877214,-73.94728331
373,Kingston Ave & Herkimer St,12,12,40.67890679,-73.94142771
374,Degraw St & Smith St,22,5,40.6829151,-73.99318208
375,Lewis Ave & Decatur St,8,8,40.6814598,-73.934903
376,Fulton St & Utica Ave,0,18,40.6794268,-73.9298911
377,Albany Ave & Fulton St,15,10,40.6800105,-73.938475
378,Halsey St & Tompkins Ave,16,0,40.6823687,-73.944118
379,Monroe St & Classon Ave,9,8,40.6845683,-73.95881081
380,Adam Clayton Powell Blvd & W 118 St,20,0,40.804372,-73.951475
381,Broadway & E 14 St,16,88,40.73454567,-73.99074142
382,Willoughby Ave & Wyckoff Ave,4,17,40.705614,-73.92153
383,Cedar St & Myrtle Ave,6,19,40.697842,-73.926241
384,3 Ave & Carroll St,8,8,40.677027,-73.9865
385,Wyckoff Av & Jefferson St,23,4,40.707165,-73.923711
386,Bushwick Ave & McKibbin St,21,0,40.705517,-73.93936
387,Bushwick Ave & Stagg St,10,11,40.709897,-73.94008
388,White St & Johnson Ave,18,3,40.707174,-73.93581
389,Montgomery St,5,8,40.71942,-74.05099
390,E 75 St & 3 Ave,28,6,40.77112927,-73.95772297
391,Washington Park,8,8,40.6917823,-73.9737299
392,Johnson St & Gold St,34,0,40.69474881,-73.98362464
393,Broad St & Bridge St,11,35,40.70365182,-74.01167797
394,Broadway & W 36 St,0,68,40.75097711,-73.98765428
395,Stanton St & Chrystie St,16,28,40.72229346,-73.99147535
396,35 Ave & 10 St,23,3,40.76315481910373,-73.93985509872437
397,Broadway & W 25 St,1,91,40.74286877312112,-73.98918628692627
398,Journal Square,0,18,40.73367,-74.0625
399,1 Ave & E 30 St,4,29,40.74144387,-73.97536082
400,S 5 Pl & S 5 St,38,0,40.710451,-73.960876
401,Forsyth St & Broome St,21,0,40.71893904,-73.99266288
402,11 Ave & W 59 St,12,5,40.77149671054441,-73.99046033620834
403,34 St & 35 Ave,6,11,40.7569332,-73.9262231
404,Metropolitan Ave & Bedford Ave,23,20,40.71534825,-73.96024116
405,Riverside Dr & W 72 St,22,11,40.78057799010334,-73.98562431335449
406,21 St & 38 Ave,11,7,40.7576314,-73.9391224
407,Clermont Ave & Lafayette Ave,30,14,40.68764484,-73.96968902
408,W 59 St & 10 Ave,35,60,40.770513,-73.988038
409,Bus Slip & State St,45,22,40.701907,-74.013942
410,West St & Chambers St,65,34,40.71754834,-74.01322069
411,St James Pl & Oliver St,34,10,40.71307916,-73.99851193
412,W 70 St & Amsterdam Ave,14,18,40.77748046,-73.98288594
413,E 2 St & Avenue B,40,35,40.72217444,-73.98368779
414,Avenue D & E 3 St,49,1,40.72082834,-73.97793172
415,Mercer St & Spring St,32,33,40.72362738,-73.99949601
416,Canal St & Rutgers St,29,13,40.71427487,-73.98990025
417,Cooper Square & Astor Pl,0,79,40.72951496224949,-73.99075269699097
418,Morris Canal,11,0,40.7124188237569,-74.03852552175522
419,Brunswick & 6th,13,1,40.72601172964625,-74.05038893222809
420,Lafayette Park,13,0,40.71346382669195,-74.06285852193832
421,Lenox Ave & W 115 St,26,1,40.8011939,-73.9500739
422,E 16 St & Irving Pl,20,55,40.735367055605394,-73.98797392845154
423,Murray St & Greenwich St,3,42,40.714851505262516,-74.01122331619263
424,E 115 St & Madison Ave,18,8,40.7989445,-73.944846
425,E 118 St & Madison Ave,22,6,40.8014866,-73.9442507
426,Lexington Ave & E 111 St,23,1,40.7954121,-73.9441232
427,Madison Ave & E 120 St,26,0,40.80295,-73.942954
428,E 123 St & Lexington Ave,2,23,40.8029263,-73.9379
429,Lexington Ave & E 127 St,1,20,40.805726,-73.936322
430,Park Ave & E 124 St,7,24,40.8045555,-73.9396861
431,Broadway & 12 St,29,0,40.7668,-73.9347774
432,W 100 St & Broadway,36,1,40.7973721,-73.97041192
433,Adam Clayton Powell Blvd & W 123 St,25,2,40.8078316,-73.949373
434,Sigourney St & Columbia St,18,2,40.67267243410948,-74.0087952464819
435,Pershing Field,9,8,40.742677141,-74.051788633
436,Newark Ave,5,16,40.72152515,-74.046304543
437,Christ Hospital,4,17,40.734785818,-74.050443636
438,Van Vorst Park,8,14,40.71848892,-74.047726625
439,Garfield Pl & 8 Ave,19,3,40.6711978,-73.97484126
440,Franklin St & W Broadway,15,12,40.71911552,-74.00666661
441,31 Ave & 34 St,12,7,40.763154,-73.920827
442,31 Ave & 14 St,16,2,40.7682,-73.9322662
443,49 Ave & 21 St,8,12,40.74252,-73.948852
444,31 Ave & Crescent St,3,13,40.7658346,-73.9265474
445,Vernon Blvd & 31 Ave,18,1,40.7692475,-73.9354504
446,5 St & 51 Ave,20,0,40.7423737,-73.9566
447,McKibbin St & Manhattan Ave,16,6,40.70510918,-73.94407279
448,Boerum St & Broadway,13,1,40.70538077,-73.94976519
449,Leonard St & Boerum St,16,4,40.70583339,-73.94644578
450,Greene Av & Myrtle Av,9,17,40.698568,-73.918877
451,Montrose Ave & Bushwick Ave,36,2,40.70767788,-73.94016171
452,Division Ave & Marcy Ave,4,25,40.70708701,-73.95796783
453,Scholes St & Manhattan Ave,29,4,40.70870368,-73.9448625
454,Stagg St & Union Ave,23,8,40.70877084,-73.95095259
455,Broadway & Roebling St,6,15,40.70924826276157,-73.96063148975372
456,W 84 St & Columbus Ave,15,14,40.78499979,-73.97283406
457,Riverside Blvd & W 67 St,65,0,40.777507027547976,-73.98888587951659
458,W 20 St & 8 Ave,18,0,40.74345335,-74.00004031
459,Carroll St & Bond St,19,3,40.6786115,-73.99037292
460,E 65 St & 2 Ave,6,18,40.76471851944339,-73.96222069859505
461,Central Park North & Adam Clayton Powell Blvd,32,1,40.799484,-73.955613
462,3 St & 3 Ave,74,4,40.6750705,-73.98775226
463,Grand Ave & Bergen St,7,12,40.678045,-73.962408
464,Cleveland Pl & Spring St,1,26,40.722103786686034,-73.99724900722504
465,E 2 St & Avenue C,35,45,40.7208736,-73.98085795
466,Fulton St & Irving Pl,15,13,40.68186,-73.959432
467,Henry St & Atlantic Ave,15,2,40.69089272,-73.99612349
468,E 97 St & 3 Ave,27,2,40.7859201,-73.94860294
469,10 St & 7 Ave,1,20,40.6662078,-73.98199886
470,Stanton St & Norfolk St,40,2,40.720747,-73.986274
471,6 Ave & 9 St,6,15,40.668127,-73.98377641
472,Nassau Ave & Russell St,33,15,40.72557,-73.94434
473,Banker St & Meserole Ave,10,20,40.72606,-73.95621
474,Rivington St & Chrystie St,15,43,40.72110063,-73.9919254
475,N 15 St & Wythe Ave,36,16,40.724055,-73.955736
476,McGinley Square,6,16,40.7253399253558,-74.06762212514877
477,Liberty Light Rail,19,3,40.7112423,-74.0557013
478,Union St,14,3,40.7182113,-74.0836394
479,10 Ave & W 28 St,37,24,40.75066386,-74.00176802
480,W 15 St & 7 Ave,40,36,40.73935542,-73.99931783
481,S 3 St & Bedford Ave,10,4,40.71260486,-73.96264403
482,Brooklyn Bridge Park - Pier 2,22,2,40.698458,-73.997178
483,Hanson Pl & Ashland Pl,17,17,40.68506807308177,-73.97790759801863
484,Dock 72 Way & Market St,1,18,40.69985,-73.97141
485,Columbia St & Degraw St,19,2,40.6859296,-74.00242364
486,Douglass St & 3 Ave,13,15,40.6802133,-73.98432695
487,2 Ave & E 104 St,25,6,40.7892105,-73.94370784
488,E 106 St & Lexington Ave,24,2,40.791976,-73.945993
489,Wythe Ave & Metropolitan Ave,31,18,40.716887,-73.963198
490,Central Park S & 6 Ave,0,65,40.76590936,-73.97634151
491,W 41 St & 8 Ave,21,36,40.75640548,-73.9900262
492,Pierrepont St & Monroe Pl,3,20,40.69535693320225,-73.99344027042389
493,Catherine St & Monroe St,24,7,40.71117444,-73.99682619
494,Newport Pkwy,2,9,40.7287448,-74.0321082
495,Heights Elevator,7,11,40.748715945380226,-74.04044330120087
496,India St & Manhattan Ave,21,22,40.73232194,-73.9550858
497,Amsterdam Ave & W 125 St,36,1,40.813358,-73.956461
498,Bedford Ave & Montgomery St,2,23,40.665816,-73.956934
499,9 Ave & W 22 St,45,3,40.7454973,-74.00197139
500,43 St & Broadway,12,11,40.7577284,-73.9166368
501,Lafayette St & Jersey St,4,51,40.72456089,-73.99565293
502,E 12 St & 3 Ave,23,42,40.73223272,-73.98889957
503,Clinton Ave & Myrtle Ave,23,8,40.693261,-73.968896
504,27 Ave & 9 St,23,14,40.7739825,-73.9309134
505,E 53 St & Madison Ave,0,45,40.7597108,-73.97402311
506,27 Ave & 3 St,17,0,40.77485,-73.9342
507,E 95 St & 3 Ave,24,2,40.7849032,-73.950503
508,University Pl & E 14 St,25,0,40.734814,-73.992085
509,W 35 St & Dyer Ave,5,31,40.754691750226016,-73.99740189313889
510,Adam Clayton Powell Blvd & W 126 St,24,0,40.809495347779475,-73.94776493310928
511,Carroll St & 6 Ave,16,1,40.6740886,-73.9787282
512,W 107 St & Columbus Ave,18,1,40.7997568,-73.9621128676
513,Bushwick Ave & Dekalb Ave,7,20,40.69502,-73.92825
514,Beaver St & Fayette St,24,4,40.70099,-73.93921
515,Bushwick Ave & Forrest St,12,7,40.70076,-73.93641
516,Evergreen Ave & Noll St,16,9,40.70106,-73.93318
517,Kent St & McGuinness Blvd,8,12,40.73124,-73.95161
518,Morgan Ave & Maspeth Ave,11,14,40.716657,-73.93637
519,Metropolitan Ave & Vandervoort Ave,10,14,40.71429,-73.93323
520,Calyer St & Jewel St,31,7,40.72984,-73.94839
521,Withers St & Kingsland Ave,6,8,40.71773,-73.94051
522,Harrison Pl & Porter Ave,17,3,40.70686,-73.92851
523,Engert Ave & McGuinness Blvd,12,5,40.72158,-73.94546
524,Jefferson St & Cypress Ave,17,8,40.70907,-73.92157
525,2 Ave & E 122 St,10,4,40.8006721,-73.9349
526,Frost St & Debevoise Ave,4,18,40.71882,-73.93948
527,Myrtle Ave & Linden St,3,21,40.69943,-73.91337
528,Myrtle Ave & Grove St,3,16,40.69905,-73.91516
529,Putnam Ave & Wyckoff Ave,8,15,40.69811,-73.90904
530,Putnam Ave & Knickerbocker Ave,5,23,40.69545,-73.91164
531,Wilson Ave & Troutman St,11,14,40.70166,-73.92754
532,Stewart Ave & Johnson Ave,13,4,40.70869,-73.92587
533,Suydam St & Broadway,9,20,40.69544,-73.93223
534,Wyckoff Av & Stanhope St,10,9,40.703545,-73.917775
535,Metropolitan Ave & Stewart Ave,5,15,40.71401,-73.92793
536,Cedar St & Evergreen Ave,6,18,40.69671,-73.92807
537,Irving Ave & Harman St,20,1,40.70108,-73.9179
538,Menahan St & Wyckoff Ave,9,7,40.70113,-73.91422
539,E 51 St & 2 Ave,18,19,40.755293,-73.967641
540,Dey St,13,4,40.737711,-74.066921
541,Linden St & Knickerbocker Ave,5,10,40.69714,-73.91566
542,Menahan St & Central Ave,5,19,40.69543,-73.9196
543,Central Ave & Himrod St,6,18,40.69676,-73.92302
544,Kingsland Ave & Nassau Ave,21,4,40.72577,-73.94173
545,Irving Ave & Palmetto St,10,6,40.698,-73.9127
546,Bushwick Ave & Harman St,9,12,40.69356,-73.92524
547,Broadway & Kosciuszko St,7,19,40.69329,-73.92852
548,E 116 St & 2 Ave,29,0,40.796879,-73.937261
549,E 85 St & 3 Ave,22,11,40.77801203,-73.95407149
550,Irving Ave & Halsey St,17,2,40.69467,-73.90663
551,Central Ave & Woodbine St,16,0,40.69296,-73.91605
552,Bushwick Ave & Linden St,6,23,40.69146,-73.92146
553,Central Ave & Covert St,7,22,40.68929,-73.90951
554,Central Ave & Decatur St,8,15,40.6882,-73.90798
555,Moffat St & Bushwick,11,6,40.68458,-73.90925
556,Eldert St & Bushwick Ave,15,5,40.68652,-73.91321
557,Halsey St & Broadway,3,16,40.68565,-73.91564
558,Grove St & Broadway,4,23,40.69047,-73.923511
559,E 89 St & 3 Ave,31,4,40.7806284,-73.9521667
560,E 89 St & York Ave,30,1,40.7779453,-73.946041
561,Knickerbocker Ave & Halsey St,2,16,40.693,-73.90824
562,Madison St & Evergreen Ave,5,11,40.69122,-73.91693
563,Halsey St & Evergreen Ave,9,10,40.68858,-73.91227
564,Broadway & Madison St,6,17,40.68822,-73.91966
565,W 15 St & 6 Ave,3,67,40.738046142482766,-73.99642959237099
566,Cliff St & Fulton St,19,41,40.70838,-74.00495
567,Wilson Ave & Moffat St,4,27,40.68906,-73.90506
568,Bushwick Ave & Furman Ave,3,25,40.68281,-73.90623
569,E 56 St & Madison Ave,0,25,40.761573,-73.972628
570,Henry St & Grand St,33,0,40.714211,-73.981095
571,Van Sinderen Ave & Truxton St,4,17,40.6786,-73.90369
572,Somers St & Broadway,9,18,40.67945,-73.90474
573,Broadway & Furman Ave,2,26,40.68139,-73.90756
574,Rockaway Ave & Bainbridge St,11,13,40.68319988172761,-73.91166642308235
575,Center Blvd & 51 Ave,20,0,40.743366080270214,-73.95960688591003
576,Cypress Ave & George St,3,15,40.69812,-73.90271
577,Norman St & Wyckoff Ave,2,10,40.69517,-73.90311
578,Forest Ave & Summerfield St,5,17,40.69922,-73.89795
579,Menahan St & Seneca Ave,2,13,40.70461,-73.91054
580,Cypress Ave & Palmetto St,11,11,40.701573408737914,-73.90876293182373
581,38 Ave & 29 St,9,8,40.75473,-73.93367
582,Manhattan Av & Leonard St,17,1,40.72084,-73.94844
583,Morgan Ave & Lombardy St,17,12,40.72226,-73.93889
584,Madison St & Cypress Ave,4,11,40.70068,-73.90742
585,E 81 St & Park Ave,28,17,40.77677702,-73.9590097
586,Stephen St & Seneca Ave,2,12,40.6988,-73.9007
587,Madison St & Seneca Ave,10,11,40.70183,-73.90625
588,Menahan St & Onderdonk Ave,8,8,40.70553,-73.9096
589,E 88 St & Park Ave,28,3,40.781410700190015,-73.95595908164978
590,Stanhope St & Fairview Ave,14,1,40.70998,-73.91116
591,Flushing Ave & Woodward Ave,5,16,40.71246,-73.91873
592,Willoughby Ave & Onderdonk Ave,5,20,40.7098,-73.91727
593,Hancock St & Wyckoff Ave,11,5,40.6972,-73.90674
594,Broadway & Hancock St,11,21,40.68663,-73.9168
595,Madison St & Forest Ave,17,8,40.70555,-73.90245
596,Woodward Ave & Harman St,5,10,40.70793,-73.91092
597,Central Ave & Melrose St,13,1,40.70112,-73.93039
598,W 47 St & 10 Ave,29,0,40.76269882,-73.99301222
599,Adam Clayton Powell Blvd & W 115 St,22,0,40.802535,-73.9532423
600,Madison St & Woodward Ave,1,17,40.70408,-73.90408
601,Fairview Ave & Linden St,11,8,40.70694,-73.90632
602,Greene Ave & Grandview Ave,9,6,40.709697,-73.907856
603,Onderdonk Ave & Dekalb Ave,1,14,40.70863,-73.91497
604,W 42 St & 6 Ave,1,48,40.75492,-73.98455
605,W Broadway & W Houston St,40,8,40.726378,-74.000472
606,Centre St & Seneca Ave,10,10,40.69969,-73.9022
607,W 53 St & 10 Ave,23,2,40.76669671,-73.99061728
608,W 54 St & 9 Ave,3,0,40.76584941,-73.98690506
609,4 Ave & E 12 St,18,13,40.732647,-73.99011
610,Delancey St & Eldridge St,5,22,40.719383,-73.991479
611,Division St & Bowery,24,22,40.714193,-73.996732
612,S 4 St & Wythe Ave,13,2,40.71285887,-73.96590294
613,Willoughby St & Ashland Pl,15,15,40.69178,-73.97877
614,Sands St Gate,16,1,40.699569,-73.979827
615,12 Ave & W 125 St,15,15,40.818299,-73.960405
616,Columbia St & Rivington St,22,16,40.71739973,-73.98016555
617,31 Ave & Steinway St,14,12,40.7611488,-73.9170071
618,24 St & 41 Ave,2,17,40.752474,-73.939991
619,W 30 St & 10 Ave,22,28,40.752694,-74.002353
620,Hoyt St & Warren St,33,2,40.6843549,-73.98901629
621,5 Ave & E 63 St,3,42,40.766368,-73.971518
622,Nassau St & Navy St,53,3,40.69839895,-73.98068914
623,West St & Liberty St,20,22,40.711444,-74.014847
624,E 128 St & 3 Ave,12,6,40.805631,-73.934077
625,2 Ave & E 125 St,8,19,40.802554,-73.933509
626,E 149 St & Morris Ave,25,10,40.81734,-73.922962
627,Lincoln Ave & E 134 St,8,9,40.808484,-73.928803
628,Willis Ave & Bruckner Blvd,10,4,40.805701,-73.925177
629,W 135 St & Lenox Terrace Pl,20,6,40.813619,-73.939336
630,5 Ave & E 135 St,4,15,40.812191,-73.937838
631,Lexington Ave & E 128 St,18,5,40.806414,-73.936085
632,Lincoln Ave & E 138 St,11,13,40.810893,-73.927311
633,E 132 St & Madison Ave,7,6,40.810224,-73.937195
634,5 Ave & W 131 St,11,1,40.81014,-73.93973
635,Adam Clayton Powell Blvd & W 130 St,19,0,40.812346,-73.946168
636,Morris Ave & E 142 St,17,3,40.814469,-73.924963
637,Amsterdam Ave & W 131 St,1,16,40.816355,-73.954295
638,Willis Ave & E 141 St,14,2,40.81093,-73.921606
639,Willis Ave & E 137 St,15,5,40.808384,-73.923604
640,E 53 St & Lexington Ave,0,52,40.75828065,-73.97069431
641,E 138 St & 5 Av,14,6,40.81449,-73.936153
642,Convent Ave & W 135 St,2,25,40.818215,-73.950988
643,Amsterdam Ave & W 136 St,0,20,40.819746,-73.951819
644,E 135 St & St Ann's Ave,23,0,40.805089,-73.918889
645,St. Ann's Av & Bruckner Blvd,14,2,40.803399,-73.919763
646,St Nicholas Ave & W 137 St,11,9,40.818477,-73.947568
647,E 134 St & Walnut Ave,14,1,40.800425,-73.911034
648,Willow Ave & E 133 St,9,9,40.800933,-73.913863
649,E 138 St & Grand Concourse,13,4,40.813224,-73.930605
650,E 138 St & Willow Ave,12,4,40.804168,-73.911545
651,Brook Ave & E 141 St,19,0,40.809619,-73.917875
652,Morris Ave & E 153 St,16,1,40.820036,-73.921411
653,Willis Ave & E 143 St,18,3,40.812299,-73.92037
654,Walnut Ave & E 136 St,14,1,40.801657,-73.909513
655,St Mary's St & Jackson Ave,7,9,40.808891,-73.91081
656,St. Ann's Ave & E 144 St,17,6,40.811112,-73.914932
657,E 144 St & Brook Ave,0,13,40.811675,-73.917037
658,Bradhurst Ave & W 148 St,17,1,40.825125,-73.941616
659,Lenox Ave & W 144 St,17,2,40.819783,-73.936521
660,Riverside Dr & W 138 St,6,22,40.823168,-73.955857
661,W 146 St & Broadway,24,5,40.826969,-73.949738
662,W 145 St & Amsterdam Ave,10,13,40.825244,-73.947257
663,Riverside Dr & W 145 St,2,30,40.827305,-73.951989
664,Melrose Ave & E 150 St,15,14,40.816827,-73.917338
665,E 149 St & Jackson Ave,2,17,40.813135,-73.909235
666,E 149 St & Eagle Ave,12,5,40.814046,-73.91186
667,Greenpoint Ave & Manhattan Ave,6,19,40.73026,-73.95394
668,Lexington Ave & E 29 St,27,25,40.74311555376486,-73.98215353488922
669,Lexington Ave & E 26 St,18,55,40.741459,-73.983293
670,St Nicholas Ave & W 134 St,12,10,40.816234,-73.948222
671,5 Av & W 139 St,11,7,40.815484,-73.935856
672,W 133 St & 12 Ave,17,1,40.820003,-73.959089
673,E 142 St & 3 Ave,10,6,40.812735,-73.923697
674,E 138 St & Cypress Ave,5,16,40.805559,-73.914718
675,LaGuardia Pl & W 3 St,8,40,40.72917025,-73.99810231
676,W Broadway & Spring St,32,32,40.72494672359416,-74.00165855884552
677,Marcus Garvey Blvd & Macon St,14,4,40.682601,-73.938037
678,Lenox Ave & W 133 St,12,9,40.81296,-73.941878
679,Adam Clayton Powell Blvd & W 132 St,19,0,40.813539,-73.94521
680,Brook Ave & E 138 St,20,0,40.807408,-73.91924
681,E 141 St & St Ann's Ave,14,5,40.808633,-73.916124
682,E 141 St & Jackson Ave,2,10,40.806896,-73.911837
683,Edgecombe Ave & W 141 St,21,0,40.820681,-73.945144
684,St. Nicholas Terrace & Convent Ave,0,23,40.821294,-73.947868
685,E 147 St & Bergen Ave,16,5,40.814673,-73.91839
686,Willoughby Ave & Myrtle Ave,7,8,40.69757,-73.93098
687,Motorgate,32,0,40.7639089,-73.9477213
688,Roosevelt Island Tramway,38,0,40.757284,-73.9536
689,Southpoint Park,35,0,40.75370225419114,-73.95865201950072
690,W 148 St & Amsterdam Ave,8,11,40.827075,-73.945909
691,Edgecombe Ave & W 145 St,14,14,40.823498,-73.94386
692,Westchester Ave & Jackson Ave,6,16,40.816124,-73.908116
693,Prospect Ave & E 151 St,17,0,40.814232,-73.903927
694,Wales Ave & E 147 St,12,2,40.811314,-73.907729
695,1 Ave & E 18 St,47,1,40.733812191966315,-73.98054420948029
696,1 Ave & E 16 St,43,4,40.73221853,-73.98165557
697,W 147 St & Adam Clayton Powell Blvd,21,2,40.82281,-73.937413
698,Broadway & W 131 St,16,4,40.817555,-73.957163
699,St Ann's Ave & Westchester Ave,13,4,40.815887,-73.911918
700,West End Ave & W 60 St,32,2,40.77237,-73.99005
701,Southern Blvd & E 142 St,10,11,40.807347437082,-73.90809774398804
702,Adam Clayton Powell Blvd & W 138 St,19,1,40.81695971032464,-73.9422959089279
703,Broadway & W 133 St,6,14,40.8190344,-73.956156
704,Madison Av & E 51 St,0,43,40.75863,-73.97513
705,Adam Clayton Powell Blvd & W 151 St,14,0,40.825289,-73.936232
706,Lenox Ave & W 146 St,18,5,40.821111,-73.935971
707,W 140 St & Riverside Dr,4,19,40.824013,-73.954743
708,Brook Ave & E 148 St,9,10,40.814383,-73.915368
709,Broadway & W 153 St,2,16,40.831327,-73.946665
710,Riverside Dr & W 148 St,11,9,40.829114,-73.950426
711,Edgecombe Ave & W 150 St,5,13,40.826881,-73.941427
712,E 155 St & Courtlandt Ave,1,12,40.82057,-73.917579
713,Melrose Ave & E 154 St,17,0,40.819609,-73.916071
714,St Nicholas Ave & W 150 St,10,14,40.827212,-73.942722
715,Gerard Ave & E 146 St,16,1,40.817755,-73.92965
716,Alexander Ave & E 134 St,9,9,40.807466,-73.927107
717,Amsterdam Ave & W 152 St,5,11,40.829523,-73.944279
718,Cauldwell Ave & E 161 St,5,10,40.82188,-73.907521
719,E 156 & Brook Ave,17,2,40.819823,-73.912411
720,Brook Ave & E 157 St,18,0,40.820713,-73.911759
721,Harlem River Dr & W 155 St,3,21,40.830476,-73.939929
722,Willoughby Ave & Tompkins Ave,17,0,40.69425403,-73.94626915
723,Prospect Ave & Longwood Ave,0,25,40.81899,-73.90202
724,Convent Ave & W 151 St,15,7,40.82831,-73.942924
725,Riverside Dr & W 91 St,37,20,40.79313480986663,-73.97700369358063
726,St. Nicholas Ave & W 157 St,1,18,40.832314,-73.94102
727,W 155 St & Frederick Douglass Blvd,27,1,40.82923,-73.936996
728,Westchester Ave & E 156 St,4,15,40.817802,-73.905203
729,Amsterdam Ave & W 162 St,10,17,40.83618,-73.939789
730,W 160 St & St. Nicholas Ave,11,15,40.834468,-73.939865
731,W 163 St & Riverside Dr,2,16,40.839278,-73.945446
732,E 160 St & Tinton Ave,7,14,40.820302,-73.903944
733,W 165 St & Fort Washington Ave,3,20,40.84004,-73.942939
734,Broadway & W 165 St,1,21,40.839137,-73.941409
735,Fort Washington Ave & W 173 St,16,6,40.84522,-73.940493
736,Amsterdam Ave & W 172 St,8,15,40.842173,-73.935111
737,Frederick Douglass Blvd & Harlem River Dr,8,11,40.830702,-73.936371
738,Broadway & W 160 St,15,6,40.835775,-73.9434
739,Central Park West & W 85 St,24,4,40.78476,-73.969862
740,Amsterdam Ave & W 156 St,1,23,40.832081,-73.942386
741,Adam Clayton Powell Blvd & W 141 St,9,13,40.819241,-73.941057
742,Amsterdam Ave & W 167 St,3,15,40.839443,-73.937044
743,Amsterdam Ave & W 175 St,10,12,40.844044,-73.933651
744,Wadsworth Ave & W 175 St,3,18,40.846052,-73.937648
745,Cabrini Blvd & W 177 St,10,13,40.848282,-73.941343
746,Amsterdam Ave & W 180 St,9,13,40.847396,-73.931205
747,Audobon Ave & W 179 St,4,17,40.847305,-73.933291
748,Wadsworth Ave & W 179 St,14,18,40.848467,-73.936064
749,Old Broadway & W 133 St,11,6,40.818212,-73.955277
750,St. Nicholas Ave & W 155 St,18,2,40.830663,-73.941323
751,Clermont Ave & Park Ave,10,6,40.69573398,-73.97129668
752,Central Park W & W 91 St,21,18,40.788664991278836,-73.96680057048798
753,Amsterdam Ave & W 183 St,3,16,40.84925,-73.93022
754,Gerard Ave & McClellan St,22,6,40.833909,-73.92112
755,Gerard Ave & E 165 St,3,14,40.83173,-73.922394
756,Grand Concourse & E 167 St,9,19,40.834263,-73.917641
757,Gerard Ave & E 164 St,14,0,40.830262,-73.923391
758,Ogden Ave & W 165 St,6,11,40.834457,-73.928381
759,Shakespeare Ave & W 169 St,16,1,40.839312,-73.922423
760,Avenue D & E 10 St,27,0,40.72506551015475,-73.97515833377838
761,E 169 St & Webster Ave,15,4,40.834015,-73.908863
762,Grand Concourse & E 171 St,15,7,40.839549,-73.913004
763,Inwood Ave & W 170 St,19,0,40.840536,-73.919228
764,E 158 St & Melrose Ave,19,1,40.822215,-73.914688
765,Prospect Pl & 6 Ave,6,16,40.6793307,-73.97519523
766,Grand Concourse & E 156 St,2,16,40.823429,-73.924689
767,W 87 St & Amsterdam Ave,26,13,40.78839,-73.9747
768,W 87 St & West End Ave,35,3,40.789622,-73.97757
769,Jerome Ave & Anderson Ave,13,4,40.830179,-73.928747
770,Grand Concourse & E 164 St,4,13,40.829608,-73.921461
771,Morris Ave & McClellan St,8,12,40.831584,-73.9149
772,Walton Ave & E 168 St,18,0,40.83649,-73.918316
773,W 159 St & Edgecombe Ave,10,9,40.833303,-73.939326
774,40 Ave & 9 St,13,3,40.75742,-73.945133
775,Park Ave & E 162 St,11,9,40.825716,-73.915585
776,Ogden Ave & Merriam Ave,10,8,40.839142,-73.925961
777,College Ave & E 170 St,1,21,40.837576,-73.910489
778,Clay Ave & E 173 St,15,4,40.843264,-73.904867
779,E 39 St & Lexington Ave,17,38,40.749498546025194,-73.97729203113158
780,28 Ave & 44 St,9,6,40.76408932350688,-73.91065120697021
781,Southern Blvd & Avenue St. John,10,7,40.812769,-73.901583
782,Beck St & Leggett Ave,20,0,40.815077,-73.899939
783,Jerome Ave & Ogden Ave,19,1,40.829797,-73.931015
784,Longwood Ave & Southern Blvd,21,0,40.816343,-73.896447
785,Westchester Ave & Longwood Ave,12,10,40.819701,-73.901311
786,Southern Blvd & Tiffany St,20,0,40.818185,-73.894143
787,Greenwich St & Hubert St,0,29,40.721319,-74.010065
788,E 163 St & Tiffany St,5,11,40.821075,-73.895069
789,River Ave & E 153 St,17,6,40.82441,-73.92818
790,Hicks St & Montague St,14,1,40.69512845,-73.99595065
791,Concourse Village West & E 156 St,8,11,40.823162,-73.923267
792,Intervale Ave & Westchester Ave,12,13,40.821967,-73.896752
793,Faile St & Garrison Ave,18,0,40.820578,-73.888271
794,Grand Concourse & East Mount Eden Ave,8,8,40.84301,-73.91172
795,Broadway & W 155 St,19,8,40.83299,-73.94592
796,E 169 St & Fox St,12,5,40.827184,-73.893721
797,Tinton Ave & E 165 St,13,4,40.824796,-73.90242
798,Southern Blvd & E 172 St,4,14,40.834124,-73.88955
799,W 181 St & Riverside Dr,6,9,40.85168,-73.94186
800,Park Ave & St Edwards St,51,0,40.69608941,-73.97803415
801,Anderson Ave & W 164 St,6,5,40.832057,-73.927421
802,Concourse Village East & E 158 St,13,14,40.823732,-73.919379
803,McGuinness Blvd & Eagle St,15,24,40.73555,-73.95284
804,River Ave & McClellan St,21,0,40.83406,-73.92243
805,Fulton Ave & St. Paul's Pl,6,13,40.83545,-73.90153
806,3 Ave & Franklin Ave,7,8,40.82696,-73.907451
807,Hamilton Pl & W 140 St,2,14,40.822756,-73.951346
808,3 Ave & E 170 St,0,16,40.834857,-73.903743
809,W 20 St & 10 Ave,11,28,40.745686,-74.005141
810,Fulton Ave & E 168 St,2,18,40.830471,-73.904556
811,E 157 St & River Ave,8,8,40.825737,-73.927311
812,Wolcott St & Dwight St,21,0,40.6753274,-74.0100698
813,N 12 St & Bedford Ave,38,7,40.72079821,-73.95484712
814,Carroll St & Smith St,39,1,40.680611,-73.99475825
815,Morris Ave & E 171 St,2,18,40.83899,-73.9109
816,Graham Ave & Conselyea St,11,18,40.715143,-73.944507
817,Clay Ave & Claremont Pkwy,13,2,40.83999,-73.90549
818,Grand St & Havemeyer St,15,7,40.71286844,-73.95698119
819,Dawson St & Intervale Ave,6,11,40.819999,-73.897263
820,3 Ave & E 174 St,14,19,40.84224,-73.8985
821,3 Ave & E 172 St,9,8,40.839586,-73.900277
822,Intervale Ave & Kelly St,0,18,40.827301,-73.896372
823,12 St & 4 Ave,21,1,40.668603,-73.9904394
824,Berkeley Pl & 7 Ave,13,13,40.675146838709786,-73.97523209452629
825,E 167 St & Franklin Ave,8,10,40.82895,-73.90521
826,E 163 St & Union Ave,11,10,40.822545,-73.901824
827,Plaza Dr & W 170 St,27,0,40.840484,-73.917946
828,E 25 St & 2 Ave,25,46,40.73912601,-73.97973776
829,E 171 St & Webster Ave,17,1,40.838379,-73.905838
830,Walton Ave & E 171 St,14,5,40.840683,-73.915073
831,9 St & 44 Rd,25,7,40.74966,-73.9521
832,Sherman Ave & E 166 St,1,14,40.83130549267296,-73.91744792461395
833,Jerome Ave & E 164 St,12,8,40.831444,-73.926226
834,Wards Meadow Comfort Station,6,6,40.78294,-73.93077
835,Icahn Stadium,7,8,40.79346,-73.92389
836,Bronx Shore Comfort Station,10,12,40.80046,-73.92404
837,Sunken Meadow Comfort Station,8,16,40.79558,-73.91906
838,E 153 St & E 157 St,6,9,40.826677,-73.929327
839,Boston Rd & E 167 St,1,16,40.828199,-73.903719
840,E 165 St & Clay Ave,10,7,40.82809,-73.91288
841,Onderdonk Ave & Gates Ave,7,11,40.70413,-73.90737
842,Wilkins Ave & Crotona Park E,16,0,40.835302,-73.895133
843,E 149 St & Park Ave,22,3,40.818154,-73.925294
844,Grand Concourse & E 166 St,8,11,40.83196,-73.91956
845,Prospect Ave & Jennings St,16,3,40.831762,-73.896853
846,Louis Nine Blvd & Intervale Ave,15,3,40.831998,-73.892686
847,E 20 St & 2 Ave,31,44,40.73587678,-73.98205027
848,W 18 St & 6 Ave,1,61,40.73971301,-73.99456405
849,Harman St & Seneca Ave,2,17,40.70577,-73.91292
850,E 161 St & Park Ave,7,12,40.824811,-73.916407
851,University Ave & W 168 St,7,9,40.838706,-73.927034
852,E 170 St & Clay Ave,9,15,40.837213,-73.908345
853,Webster Ave & E 166 St,16,2,40.828975,-73.911259
854,Hunts Point Ave & Bryant Ave,9,10,40.813991,-73.8855
855,Clinton St & Tillary St,5,27,40.696232971293156,-73.99142056703568
856,Franklin Ave & E 169 St,5,8,40.83171,-73.90208
857,Boston Rd & Prospect Ave,11,6,40.833246,-73.896599
858,3 Ave & E 163 St,21,4,40.823872,-73.908699
859,Barry St & Tiffany St,9,6,40.816126,-73.891559
860,Lexington Ave & E 36 St,1,21,40.747573958954796,-73.9788007736206
861,River Ave & E 151 St,17,6,40.822217,-73.928939
862,Washington Ave & E 163 St,17,0,40.824,-73.91089
863,Prospect Ave & E 167 St,6,11,40.826303,-73.898751
864,E 165 St & Fox St,13,12,40.82394,-73.894025
865,Waterloo Pl & Crotona Park East,1,17,40.839194,-73.888587
866,Crotona Park East & E 173 St,0,17,40.837037,-73.890413
867,Boone Ave & E 172 St,15,2,40.832649,-73.885272
868,Grand Army Plaza & Central Park S,4,68,40.7643971,-73.97371465
869,Washington Ave & E 174 St,10,8,40.843079,-73.900216
870,Carroll St & Columbia St,34,1,40.6830456,-74.00348559
871,Bialystoker Pl & Delancey St,16,15,40.71622644,-73.98261206
872,Frederick Douglass Blvd & W 145 St,23,2,40.823061,-73.941928
873,Charlotte St & Boston Rd,10,8,40.8358771,-73.8931428
874,Southern Blvd & E 175 St,8,6,40.839335,-73.886445
875,Lafayette Ave & Hunts Point Ave,2,12,40.816567,-73.888161
876,W 51 St & 6 Ave,0,79,40.7606597,-73.98042047
877,Sheridan Ave & E 172 St,3,14,40.840494,-73.911479
878,Garrison Ave & Manida St,20,10,40.818743,-73.890247
879,E 11 St & 1 Ave,27,30,40.72953837,-73.98426726
880,E 170 St & Webster Ave,15,0,40.83617913677475,-73.90730146322765
881,E 11 St & Avenue B,59,4,40.72746420692392,-73.97950418293476
882,Riverside Dr & W 153 St,11,8,40.832164,-73.949702
883,E 174 St & Walton Ave,7,0,40.844811,-73.912042
884,Fulton Ave & E 172 St,5,13,40.839229,-73.899047
885,Southern Blvd & E 149 St,22,3,40.811892,-73.904192
886,E 68 St & Madison Ave,18,38,40.7691572,-73.96703464
887,E 68 St & 3 Ave,7,19,40.76712840349542,-73.96224617958069
888,E 63 St & 3 Ave,21,29,40.763954,-73.9646
889,Henry St & Bay St,11,5,40.6725058,-74.00494695
890,E 84 St & 1 Ave,16,1,40.77565541,-73.95068615
891,24 Ave & 26 St,7,9,40.774591,-73.918544
892,W 54 St & 11 Ave,24,25,40.768333,-73.992573
893,W 44 St & 11 Ave,72,1,40.762009,-73.996975
894,Westchester Ave & Southern Blvd,5,13,40.824956,-73.891677
895,Seneca Ave & Irvine St,5,14,40.81872569990116,-73.88862490653992
896,E 9 St & Avenue C,38,5,40.72521311,-73.97768752
897,Old Slip & South St,8,73,40.70336686695866,-74.007867872715
898,Lexington Ave & E 24 St,2,75,40.74025878,-73.98409214
899,Hudson St & W 13 St,2,30,40.74005708567285,-74.0052741765976
900,West Thames St,45,25,40.70834698,-74.01713445
901,E 6 St & Avenue B,39,52,40.72453734,-73.98185424
902,Cadman Plaza E & Tillary St,30,19,40.69597683,-73.99014892
903,Spring St & Hudson St,9,27,40.72583996792375,-74.0076532959938
904,Thompson St & Bleecker St,59,0,40.72840059450829,-73.99968780577183
905,34th Ave & Vernon Blvd,29,0,40.76535380385866,-73.93986314535141
906,W 10 St & Washington St,21,41,40.73342399437081,-74.00851495563984
907,34 Ave & 31 St,8,11,40.759604471387945,-73.92714411020279
908,18 St & 27 Ave,18,3,40.772768286288304,-73.92743647098541
909,Washington St & Barrow St,35,12,40.73191132323174,-74.008769094944
910,8 St & Astoria Blvd,14,5,40.7725996921817,-73.93266275525093
911,E 54 St & 1 Ave,33,3,40.756265,-73.964179
912,Southern Blvd & E 174 St,12,15,40.836733,-73.887931
913,24 St & 38 Ave,13,5,40.756351,-73.936515
914,Home St & Westchester Ave,8,4,40.827629,-73.886659
915,Morris Ave & E 163 St,12,9,40.827230499624726,-73.91765579597632
916,35 St & 30 Ave,24,4,40.76547569244953,-73.91811579465866
917,Steinway St & Broadway,7,16,40.75905795418586,-73.91897544264793
918,Nelson Ave & 167 St,11,9,40.83670566862804,-73.92608866095543
919,Shore Blvd & Astoria Park,10,19,40.77977,-73.923162
920,E 44 St & Lexington Ave,5,38,40.752643,-73.974996
921,E 27 St & Park Ave S,2,62,40.74275179648995,-73.9847157150507
922,W 29 St & 9 Ave,8,19,40.7500727,-73.99839279
923,3 Ave & E 169 St,8,12,40.832678,-73.905158
924,34 St & 38 Ave,7,18,40.752443,-73.929737
925,43 St & 35 Ave,4,20,40.754139,-73.919543
926,38 St & Northern Blvd,7,13,40.752372,-73.925384
927,30 Ave & 41 St,7,11,40.763422,-73.914142
928,34 Ave & 45 St,11,10,40.754795,-73.917014
929,30 Ave & 47 St,10,7,40.761294,-73.909562
930,43 St & 37 Ave,1,20,40.750181,-73.919998
931,46 St & 25 Ave,15,8,40.765753,-73.90676
932,50 St & 30 Ave,6,17,40.760083,-73.907107
933,34 Ave & 48 St,8,11,40.75388,-73.914952
934,25 Ave & 41 St,13,7,40.767666,-73.910963
935,48 St & Broadway,3,26,40.755763,-73.912715
936,Bulova Ave & Brooklyn Queens Expressway W,11,6,40.762507,-73.902534
937,Broadway & 49 St,17,7,40.755389,-73.911517
938,50 St & Northern Blvd,9,12,40.753441,-73.912402
939,31 Ave & 57 St,9,13,40.757357,-73.904726
940,Broadway & 51 St,20,6,40.754164,-73.908906
941,43 St & 23 Ave,7,14,40.769673,-73.906018
942,W 95 St & Broadway,24,3,40.7937704,-73.971888
943,62 St & Northern Blvd,14,11,40.754176,-73.900318
944,E 12 St & Ave C,30,9,40.727243,-73.976831
945,57 St & 1 Ave,14,10,40.646377,-74.023087
946,Steinway St & Ditmars Blvd,5,14,40.772717,-73.906127
947,58 St & 2 Ave,25,10,40.644512,-74.021506
948,36 St & Ditmars Blvd,3,19,40.774306,-73.908335
949,Ditmars Blvd & 43 St,3,22,40.771203,-73.903865
950,Steinway St & 21 Ave,14,6,40.774798,-73.903787
951,31 St & 21 Ave,16,9,40.77813,-73.90842
952,21 Ave & Shore Blvd,13,6,40.783956,-73.916894
953,21 Ave & Crescent St,4,17,40.780478,-73.912212
954,Hazen St & 20 Ave,20,2,40.772092,-73.895166
955,Steinway St & 19 Ave,19,1,40.778089,-73.899558
956,Ditmars Blvd & 79 St,3,21,40.768728,-73.890745
957,76 St & 21 Ave,6,13,40.77028,-73.893675
958,8 Ave & W 27 St,9,18,40.747968,-73.996637
959,E 14 St & Avenue B,33,4,40.72938685,-73.97772429
960,E 13 St & 2 Ave,46,3,40.73153937464073,-73.9853024482727
961,20 Ave & 38 St,26,1,40.777112,-73.902382
962,20 Ave & 48 St,16,6,40.772899,-73.896849
963,Windsor Pl & 8 Ave,8,11,40.660906,-73.983074
964,38 St & 30 Ave,2,20,40.764174520197685,-73.91583994030952
965,16th St & 4th Ave,19,11,40.666197,-73.992466
966,17 St & 5 Ave,21,2,40.663493,-73.991007
967,6 Ave & 21 St,16,10,40.66016,-73.990974
968,21 St & 4 Ave,18,1,40.662584,-73.995554
969,Prospect Park W & 20 St,7,16,40.656633,-73.983864
970,23 St & 3 Ave,24,0,40.662611,-73.998623
971,30 St & 4 Ave,16,0,40.657743,-74.001141
972,11 Ave & Prospect Ave,4,14,40.65629,-73.977335
973,34 St & 4 Ave,19,1,40.655278,-74.003101
974,2 Av & 37 St,1,27,40.656326,-74.009627
975,3 Ave & 17 St,16,4,40.666168,-73.995549
976,29 St & 5 Ave,15,0,40.656986,-73.998194
977,34 St & 5 Ave,18,0,40.654098,-74.001131
978,5 Ave & 37 St,23,6,40.652657,-74.002356
979,2 Ave & E 29 St,21,27,40.741723510974715,-73.97809267044067
980,2 Ave & 32 St,21,5,40.659176,-74.006584
981,Albany St & Greenwich St,7,36,40.709267,-74.013247
982,41 St & 3 Ave,15,4,40.652512,-74.008906
983,41 St & 4 Ave,7,15,40.651354,-74.007168
984,5 Ave & 41 St,5,24,40.649983,-74.005144
985,7 Ave & 20 St,6,12,40.659053,-73.98854
986,Forsyth St & Grand St,27,22,40.71779817737835,-73.99316132068634
987,24 St & 5 Ave,13,6,40.659555,-73.995068
988,7 Ave & 22 St,10,14,40.658029,-73.989605
989,W 31 St & 7 Ave,56,18,40.749156,-73.9916
990,48 St & 2 Ave,13,4,40.650176,-74.015606
991,46 St & 6 Ave,4,15,40.645921,-74.005708
992,44 St & 6 Ave,14,8,40.647105,-74.004483
993,Ft. Hamilton Pkwy & E 5 St,21,1,40.649037,-73.97673
994,Greenwood Ave & E 4 St,15,5,40.650739,-73.977739
995,Clinton St & Cherry St,27,0,40.711471394469264,-73.98672603070736
996,46 St & 7 Ave,3,17,40.644743,-74.003754
997,55 St & 5 Ave,1,25,40.642408,-74.013318
998,52 St & 1 Ave,21,0,40.649292,-74.020105
999,53 St & 5 Ave,8,21,40.643371,-74.011884
1000,52 St & 6 Ave,0,18,40.642703,-74.009441
1001,53 St & 4 Ave,7,16,40.644862,-74.014531
1002,59 St & 4 Ave,3,29,40.641269,-74.017651
1003,Ft. Hamilton Pkwy & E 2 St,14,4,40.648005,-73.979342
1004,64 St & 3 Ave,33,0,40.639978,-74.02324
1005,6 Ave & 60 St,5,16,40.638196,-74.013821
1006,36 St & 4 Ave,20,8,40.654144,-74.00422
1007,7 Ave & 40 St,10,11,40.648169,-74.000057
1008,44 St & 3 Ave,22,0,40.651173,-74.011405
1009,Prospect Park SW & 10 Ave,12,14,40.659945,-73.977504
1010,Windsor Pl & Howard Pl,6,15,40.659490558938955,-73.98013919591904
1011,36 St & 3 Ave,18,7,40.655716,-74.006664
1012,57 St & 4 Ave,3,17,40.642622,-74.016866
1013,55 St & 7 Ave,10,13,40.639673,-74.008957
1014,Dahill Rd & 12 Ave,20,0,40.646037,-73.980963
1015,Prospect Park SW & Greenwood Ave,27,3,40.652563,-73.972573
1016,E 8 St & Caton Ave,20,9,40.648055,-73.972432
1017,Caton Ave & E 10 St,25,4,40.648481,-73.97058
1018,Albemarle Rd & McDonald Ave,16,4,40.645074,-73.979681
1019,E 3 St & Church Ave,12,8,40.643817,-73.977433
1020,Caton Ave & E 7 St,12,8,40.647718,-73.973663
1021,Lenox Ave & W 140 St,19,1,40.817245,-73.938787
1022,4 Ave & Shore Road Dr,18,1,40.637033,-74.022141
1023,Greenwich St & Perry St,20,24,40.73498,-74.00697
1024,Parade Pl & Crooke Ave,27,1,40.651847,-73.965248
1025,4 Ave & 17 St,6,16,40.665507,-73.993037
1026,6 Ave & 55 St,5,13,40.640831,-74.010996
1027,7 Ave & 41 St,4,18,40.647379,-74.000911
1028,65 St & 2 Ave,8,11,40.640493,-74.02564
1029,Church Ave & Story St,15,7,40.642031,-73.981073
1030,12 Ave & 36 St,19,1,40.643546,-73.986418
1031,Chester Ave & 12 Ave,17,1,40.644367,-73.984276
1032,5 Ave & 66 St,17,2,40.635679,-74.020005
1033,3 Ave & Wakeman Pl,22,1,40.638246,-74.024714
1034,47 St & 3 Ave,17,5,40.649143,-74.012384
1035,Church Ave & McDonald Ave,24,4,40.642809,-73.979239
1036,67 St & Erik Pl,23,0,40.633385,-74.016562
1037,48 St & 5 Ave,3,22,40.646351,-74.009271
1038,63 St & 5 Ave,19,4,40.63766,-74.01782
1039,Wyckoff Ave & Gates Ave,9,27,40.699871408829885,-73.91171872615814
1040,Morton St & Washington St,0,0,40.73115,-74.00887
1041,Park Cir & East Dr,23,4,40.651566,-73.972212
1042,Broadway & W 192 St,15,7,40.857994,-73.932173
1043,Nagle Ave & Thayer St,30,0,40.861382,-73.925591
1044,Broadway & W 185 St,2,14,40.852538,-73.93441
1045,10 Ave & W 14 St,4,46,40.741981599940225,-74.00831580162048
1046,Ft. Washington Ave & W 190 St,1,16,40.856906,-73.935662
1047,W 190 St & Broadway,0,19,40.85648733523576,-73.93296986818314
1048,India St Pier,28,24,40.731734785883454,-73.9612390102593
1049,Broadway & Ellwood St,13,5,40.862058,-73.929719
1050,Nagle Ave & Ellwood St,15,4,40.86012,-73.928489
1051,Grand Army Plaza & Plaza St West,18,19,40.6729679,-73.97087984
1052,Seaman Ave & Beak St,12,2,40.867505,-73.926363
1053,Dyckman St & Staff St,16,2,40.868846,-73.931537
1054,W 204 St & Nagle Ave,19,0,40.863211,-73.920827
1055,10 Ave & W 204 St,14,4,40.862638,-73.92006
1056,Dyckman St & Henshaw St,17,1,40.867357,-73.92936
1057,Warren St & W Broadway,40,27,40.71473993,-74.00910627
1058,Isham St & Broadway,22,6,40.86788,-73.919685
1059,10 Ave & W 207 St,33,2,40.864632,-73.918598
1060,1 Ave & E 6 St,35,50,40.72633085971696,-73.98616880178452
1061,W 204 St & Vermilyea Ave,21,0,40.866141,-73.922648
1062,Bergen St & 4 Ave,13,19,40.68256425759694,-73.9798977971077
1063,10 Ave & W 202 St,17,4,40.861281970750994,-73.921417593956
1064,Leonard St & Church St,9,42,40.717571,-74.005549
1065,E 9 St & 5 Ave,29,25,40.73275887045087,-73.99581670761108
1066,Margaret Corbin Plz & Ft Washington Ave,0,25,40.859166,-73.933872
1067,Grand St & Samuel Dickstein Plaza,37,40,40.715118719964956,-73.98417055606842
1068,10 Ave & W 215 St,14,6,40.86932465640094,-73.91519755125046
1069,W 218 St & Indian Rd,5,13,40.873054589370895,-73.91837194561958
1070,1 St & 6 Ave,15,0,40.672784,-73.979826
1071,E 171 St & 3 Ave,19,2,40.837119,-73.902185
1072,Bay St & Court St,23,2,40.671409,-74.001328
1073,Prospect Park SW & 16 St,18,13,40.657265,-73.974165
1074,Congress St & Hicks St,30,1,40.6893952,-73.9995126
1075,Warren St & Smith St,26,4,40.685424009970184,-73.99127773940563
1076,59 St & 5 Ave,2,28,40.640125,-74.015726
1077,Prospect Park SW & Vanderbilt St,31,2,40.65482,-73.973217
1078,Broadway & W 168 St,0,26,40.84089603193041,-73.93972098827362
1079,Sherman Ave & Thayer St,19,2,40.863124,-73.926994
1080,Van Brunt St & Van Dyke St,18,3,40.6758329439129,-74.01472628116608
1081,Hart St & Wyckoff Ave,10,12,40.704876,-73.919911
1082,9 Ave & W 219 St,18,1,40.871094,-73.911503
1083,Broadway & W 220 St,5,11,40.872412,-73.912807
1084,W 218 St & Broadway,15,9,40.87139,-73.914318
1085,4 Ave & 3 St,30,7,40.673746,-73.985649
1086,Dyckman St & 10 Ave,10,4,40.85890447538412,-73.9230939745903
1087,St Marks Pl & 4 Ave,23,1,40.68177810928762,-73.97988975048065
1088,Featherbed Ln & Nelson Ave,3,16,40.846011,-73.919637
1089,45 St & 4 Ave,8,16,40.649145,-74.009486
1090,Anthony Ave & E 175 St,1,14,40.846465,-73.903869
1091,4 Ave & 26 St,24,0,40.660079,-73.998633
1092,Jerome Ave & W 177 St,25,4,40.850121,-73.910765
1093,Soissons Landing,18,1,40.69231660719192,-74.01486575603485
1094,Yankee Ferry Terminal,33,2,40.68706579875912,-74.01675585121666
1095,Picnic Point,11,30,40.68512559515415,-74.02535319328308
1096,Amsterdam Ave & W 79 St,25,11,40.7829391,-73.9786517
1097,Anthony Ave & E Tremont Ave,0,16,40.848793,-73.903178
1098,E Tremont Ave & Jerome Ave,12,4,40.851747,-73.908964
1099,South Waterfront Walkway - Sinatra Dr & 1 St,0,29,40.73698221818716,-74.02778059244156
1100,11 St & Washington St,23,1,40.74998490907138,-74.02715027332306
1101,President St & 4 Ave,5,24,40.676757,-73.983262
1102,Mama Johnson Field - 4 St & Jackson St,17,5,40.74313993965626,-74.04004096984863
1103,Ave D & E 8 St,25,1,40.72368361,-73.97574813
1104,W Burnside Ave & University Ave,3,14,40.853686,-73.912498
1105,W Tremont Ave & Montgomery Ave,6,14,40.851788,-73.916418
1106,Davidson Ave & W Burnside Ave,29,2,40.853646,-73.908731
1107,E Tremont Ave & E 176 St,13,6,40.847798,-73.901883
1108,Madison St & 1 St,15,5,40.73879,-74.0393
1109,Church Sq Park - 5 St & Park Ave,3,18,40.74265933273143,-74.03223305940628
1110,Bloomfield St & 15 St,5,9,40.75453,-74.02658
1111,19 St & 8 Ave,21,0,40.658489,-73.985543
1112,Sedgwick Ave & W Burnside Ave,9,5,40.854947,-73.916661
1113,E 20 St & Park Ave,5,33,40.73827428,-73.98751968
1114,Lexington Ave & Classon Ave,13,3,40.68676793,-73.95928168
1115,Walton Ave & E 183 St,8,19,40.858472,-73.90266
1116,Academy St & Nagle Ave,11,8,40.862562,-73.922661
1117,Southwest Park - Jackson St & Observer Hwy,7,12,40.73755127245804,-74.04166370630264
1118,Cedar Ave & W Fordham Rd,13,9,40.86156,-73.91219
1119,Jerome Ave & E 181 St,8,11,40.855653,-73.905528
1120,E 33 St & 1 Ave,18,58,40.74322681432173,-73.97449783980846
1121,6 St & Grand St,16,2,40.744397833095604,-74.03450086712837
1122,Adams St & 11 St,11,7,40.750915534784994,-74.03354063630104
1123,Madison St & 10 St,13,8,40.74994325412246,-74.03586477041245
1124,Grand St & 14 St,2,17,40.75409,-74.0316
1125,W Tremont Ave & Grand Ave,12,6,40.850036,-73.912785
1126,University Ave & Brandt Pl,2,17,40.848354,-73.918389
1127,Andrews Ave S & W 179 St,0,17,40.855156,-73.91278
1128,Webster Ave & Ford St,19,1,40.85556,-73.89615
1129,E 188 St & Creston Ave,14,17,40.861669,-73.898589
1130,Henry St & Remsen St,16,6,40.69400964865994,-73.99465128779411
1131,Bridge St & Water St,31,13,40.702969341552716,-73.98469090461731
1132,Jerome Ave & W 193 St,2,7,40.86659,-73.89794
1133,Grand Ave & W Fordham Rd,1,19,40.86288,-73.90316
1134,E 11 St & 3 Ave,10,60,40.73127,-73.98849
1135,Clinton St & 7 St,12,6,40.74542,-74.03332
1136,4 St & Grand St,14,4,40.7422579775645,-74.03511106967926
1137,9 St HBLR - Jackson St & 8 St,11,5,40.74790720968899,-74.03841152787209
1138,7 St & Monroe St,15,7,40.74641264837719,-74.03797701001167
1139,Morris Ave & E 184 St,11,6,40.86008,-73.90079
1140,Andrew Ave N & Hall of Fame Tce,0,18,40.85834,-73.91008
1141,E Burnside Ave & Ryer Ave,7,5,40.850535,-73.901318
1142,Valentine Ave & E 183 St,2,18,40.856987,-73.898237
1143,Bainbridge Ave & E 193 St,21,4,40.86389,-73.89246
1144,Grand Concourse & E 197 St,8,13,40.86945,-73.89148
1145,Goulden Ave & Bedford Park Blvd W,4,14,40.87387,-73.89533
1146,Grand Concourse & E 199 St,2,12,40.87142,-73.88839
1147,Bedford Park Blvd & Paul Ave,11,12,40.87444,-73.89186
1148,Goulden Ave & W 197 St,2,12,40.87156,-73.89714
1149,Ocean Pkwy & Church Ave,17,6,40.644718957635746,-73.97451460361481
1150,Lewis Ave & Madison St,20,1,40.686312,-73.935775
1151,Grand Concourse & E 203 St,18,6,40.87382,-73.88661
1152,Grand Concourse & E 192 St,18,1,40.86448,-73.89522
1153,Marion Ave & Mosholu Pkwy,19,1,40.8704956,-73.8818756582
1154,Dock St & Front St,8,18,40.702709,-73.99253
1155,Nassau St & Duffield St,25,25,40.698477,-73.98384
1156,Myrtle Ave & Fleet Pl,31,13,40.693534,-73.981909
1157,University Ave & W Burnside Ave,10,10,40.85501,-73.910751
1158,Morris Ave & E Burnside Ave,18,0,40.85322,-73.90546
1159,Hoboken Terminal - Hudson St & Hudson Pl,1,20,40.73593758446329,-74.03030455112457
1160,Amsterdam Ave & W 186 St,14,6,40.851113,-73.928808
1161,E Fordham Rd & Webster Ave,25,6,40.861748,-73.89105
1162,Decatur Ave & E 197 St,18,0,40.86557,-73.88807
1163,W Fordham Rd & Loring Pl N,10,14,40.86295,-73.90741
1164,Jerome Ave & W 184 St,1,14,40.860814,-73.902541
1165,Bailey Ave & Sedgwick Ave,10,7,40.86571,-73.90857
1166,Bainbridge Ave & E 196 St,9,9,40.86648,-73.89042
1167,Grand Concourse & E 196 St,10,12,40.86767,-73.89286
1168,Creston Ave & E 181 St,4,15,40.8549,-73.90281
1169,Botanical Sq & Webster Ave,26,2,40.86814,-73.88145
1170,Decatur Ave & Bedford Park Blvd,19,0,40.86813,-73.88412
1171,Goulden Ave & W 205 St,13,4,40.87812,-73.89192
1172,Bainbridge Ave & Bedford Park Blvd,9,8,40.87002,-73.88565
1173,E Mosholu Pkwy & Van Cortlandt Ave E,7,9,40.87656,-73.88366
1174,Jerome Ave & E Mosholu Parkway S,8,9,40.87935,-73.88534
1175,Paul Ave & W 205 St,17,0,40.87704,-73.88943
1176,Grand Concourse & E Mosholu Pkwy S,16,4,40.877964,-73.8847550291
1177,McDonald Ave & Vanderbilt St,14,5,40.651654,-73.981231
1178,W Mosholu Pkwy S & Sedgwick Ave,30,7,40.88226,-73.88702
1179,Spruce St & Gold St,23,27,40.7103231,-74.0043228
1180,Jerome Ave & W 195 St,3,28,40.86874,-73.89657
1181,Tiebout Ave & E 184 St,8,7,40.858498,-73.89637
1182,Adams St & Prospect St,24,34,40.700763083261506,-73.98869812488556
1183,Bailey Ave & W 193 St,18,4,40.87069,-73.90678
1184,Sands St & Jay St,15,28,40.700119,-73.9862
1185,Paul Ave & Mosholu Pkwy,17,0,40.8802945,-73.8860653648
1186,Grand Concourse & E 205 St,3,11,40.875531,-73.8863864831
1187,Jerome Ave & Bedford Park Blvd E,12,10,40.87307,-73.88971
1188,Frederick Douglass Blvd & W 139 St,16,5,40.81900581806558,-73.94476890563965
1189,Broadway & W 142 St,7,13,40.824686,-73.951947
1190,Bergen Ave & Stegman St,5,10,40.70657545063453,-74.0867006778717
1191,5 Ave & W 126 St,8,18,40.80722,-73.9418
1192,Bridge St & York St,50,1,40.70133448066992,-73.98471236228943
1193,Webb Ave & W 190 St,1,20,40.8660052,-73.904254892
1194,Aqueduct Ave & North St,14,6,40.8604787,-73.9057169936
1195,6 Ave & Broome St,36,34,40.72431,-74.00473
1196,E Mosholu Pkwy & E 204 St,10,7,40.8740704,-73.8833650931
1197,E 91 St & 2 Ave,63,5,40.781152764279156,-73.94963040947914
1198,Central Park W & W 103 St,31,0,40.79558954105342,-73.96188408136368
1199,Fulton St & William St,8,30,40.70960089363537,-74.00655090808868
1200,Montague St & Clinton St,1,26,40.6942715,-73.9923272
1201,E 88 St & 1 Ave,34,0,40.778301,-73.9488134
1202,Congress St & Clinton St,36,1,40.68825516598005,-73.99545192718506
1203,Bushwick Ave & Powers St,10,18,40.71247661,-73.94100005
1204,Grand Concourse & E 161 St,11,8,40.82713380423556,-73.9227358996868
1205,E 59 St & Madison Ave,2,43,40.76350532,-73.97109243
1206,Sterling St & Bedford Ave,7,11,40.6627059,-73.9569115
1207,Willow Ave & 12 St,4,11,40.7518674823282,-74.03037697076797
1208,Sedgwick Ave & Hall of Fame Tce,5,13,40.859532,-73.913303
1209,Macombs Rd & Featherbed Ln,8,7,40.84552,-73.91722
1210,62 St & 4 Ave,10,6,40.639859,-74.019776
1211,Jerome Ave & E 198 St,13,7,40.87144520687118,-73.89289632439613
1212,Grant Ave & MLK Dr,3,13,40.70919832245443,-74.08084273338318
1213,Creston Ave & E 178 St,9,16,40.850885,-73.906469
1214,Loring Pl North & W 183 St,7,13,40.8604244,-73.9093359997
1215,Green St & McGuinness Blvd,4,16,40.73396,-73.95204
1216,W 192 St & University Ave,0,18,40.866899,-73.901942
1217,Decatur Ave & Oliver Pl,22,0,40.867,-73.8857764
1218,Bainbridge Ave & E 198 St,13,6,40.8684871,-73.8884559781
1219,Broadway & W 56 St,10,90,40.7652654,-73.98192338
1220,E 201 St & Briggs Ave,16,2,40.87207,-73.88459
1221,Rogers Ave & Sterling St,16,0,40.6630619,-73.9538746
1222,Broadway & W 38 St,0,59,40.7529728216068,-73.98734897375107
1223,Broadway & E 21 St,0,47,40.739888408589955,-73.98958593606949
1224,E 5 St & Avenue C,47,3,40.72299208,-73.97995466
1225,E 1 St & 1 Ave,16,55,40.72335597960796,-73.98864984512329
1226,Longfellow Ave & E 165 St,12,9,40.825322,-73.887729
1227,20 Ave & 21 St,10,8,40.784003,-73.912297
1228,20 Ave & Shore Blvd,13,6,40.785994,-73.915098
1229,Richardson St & N Henry St,14,9,40.71907891179564,-73.94223690032959
1230,12 St & Sinatra Dr N,14,13,40.750604142368964,-74.02402013540268
1231,W 168th S & Fort Washington Ave,24,23,40.84210236102173,-73.9422395825386
1232,Mt Morris Park W & W 120 St,24,1,40.804038,-73.945925
1233,W 144 St & Adam Clayton Powell Blvd,14,5,40.820877,-73.939249
1234,E 103 St & Lexington Ave,27,4,40.7903051,-73.94755757
1235,Division Ave & Hooper St,36,19,40.70684203101325,-73.9544353965357
1236,Sullivan St & Washington Sq,48,4,40.73047747,-73.99906065
1237,Vesey St & Church St,16,26,40.71221958009051,-74.01047229766846
1238,W 225 St & Exterior St,13,5,40.873265,-73.906646
1239,Broadway & W 53 St,0,78,40.76344058,-73.98268129
1240,Fulton St & Clermont Ave,31,40,40.68415748,-73.96922273
1241,5 Ave & E 87 St,25,5,40.78232260730881,-73.95987510681152
1242,49 St & 31 Ave,11,7,40.758057,-73.909831
1243,49 St & 25 Ave,7,18,40.764496,-73.904632
1244,31 Ave & 61 St,15,6,40.757525,-73.901614
1245,Courtlandt Ave & E 149 St,21,0,40.816402,-73.919549
1246,Macombs Rd & W 175 St,4,15,40.848177,-73.916082
1247,20 Ave & 42 St,11,9,40.775415,-73.900063
1248,Flatbush Ave & Ocean Ave,5,34,40.663657,-73.963014
1249,Water St & Gouverneur Ln,21,14,40.70469667894968,-74.00803416967392
1250,53 St & 2 Ave,11,16,40.64744,-74.018846
1251,Nelson Ave & W 172 St,1,15,40.843965,-73.920999
1252,E 161 St & River Ave,16,19,40.827883,-73.927111
1253,W 22 St & 10 Ave,53,20,40.74691959,-74.00451887
1254,W 37 St & 5 Ave,2,51,40.75038009,-73.98338988
1255,E 48 St & 5 Ave,0,58,40.75724567911726,-73.97805914282799
1256,W 44 St & 5 Ave,0,65,40.75500254,-73.98014437
1257,Ryer Ave & E 182 St,11,12,40.8558,-73.89956
1258,Plaza St West & Flatbush Ave,1,31,40.6750207,-73.97111473
1259,Bergen St & Flatbush Ave,17,12,40.680944723477296,-73.97567331790923
1260,City Hall - Washington St & 1 St,0,21,40.73736,-74.03097
1261,Clinton St & Newark St,1,13,40.73743,-74.03571
1262,Hudson St & 4 St,0,13,40.74097260864355,-74.02860336005688
1263,W 176 St & Montgomery Ave,5,10,40.849629,-73.919205
1264,Popham Ave & W 174 St,2,18,40.847746,-73.922079
1265,Coffey St & Ferris St,9,11,40.67818387977647,-74.0170168876648
1266,Prospect Ave & Greenwood Ave,18,4,40.651745,-73.975988
1267,1 Pl & Clinton St,17,16,40.6809591,-73.99905709
1268,E 41 St & Madison Ave (SE corner),4,85,40.752049,-73.979635
1269,Broadway & W 58 St,4,61,40.76695317,-73.98169333
1270,W 37 St & 10 Ave,23,14,40.75660359,-73.9979009
1271,W 36 St & 9 Ave,7,29,40.75462324029105,-73.99516761302948
1272,Washington St & Gansevoort St,20,23,40.739323,-74.008119
1273,58 St & Pier 4,15,0,40.646475,-74.026081
1274,Adams St & 2 St,10,4,40.73981372311843,-74.03690412640572
1275,45 Ave & 21 St,0,17,40.74737075646803,-73.94777297973631
1276,51 St & Hobart St,6,16,40.75767234025041,-73.90769943594933
1277,Grand Ave & W 181 St,1,15,40.856302,-73.907302
1278,Marshall St & 2 St,11,5,40.740802,-74.042521
1279,Broadway & W 61 St,20,0,40.77003010255044,-73.9819684624672
1280,E 55 St & 2 Ave,16,10,40.75797322,-73.96603308
1281,14 St & 7 Ave,2,19,40.663779,-73.98396846
1282,Railroad Ave & Kay Ave,13,16,40.70514807698391,-73.97078096866608
1283,5 St & Market St,17,22,40.699997484388504,-73.97440128028393
1284,University Pl & E 8 St,16,59,40.73143724085228,-73.99490341544151
1285,Suffolk St & Stanton St,39,35,40.72066442,-73.98517977
1286,King St & Varick St,11,23,40.72789701409023,-74.00536268949507
1287,9 Ave & W 45 St,11,9,40.76019252,-73.9912551
1288,9 Ave & W 18 St,26,48,40.74317449,-74.00366443
1289,MacDougal St & Prince St,41,12,40.72710258,-74.00297088
1290,E 133 St & Cypress Pl,5,13,40.80262,-73.9174
1291,Van Buren St & Broadway,14,9,40.692,-73.92617
1292,23 Rd & 31 St,10,11,40.77336750284339,-73.91382560133934
1293,Avenue D & E 12 St,33,4,40.72580614,-73.97422494
1294,Mercer St & Bleecker St,14,48,40.72706363348306,-73.99662137031554
1295,Great Jones St,1,15,40.72743423,-73.99379025
1296,E 170 St & Sheridan Ave,12,16,40.838315,-73.912604
1297,1 Ave & E 39 St,18,27,40.74714,-73.97113
1298,Maiden Ln & Pearl St,12,16,40.70706456,-74.00731853
1299,8 Ave & W 52 St,0,27,40.76370739,-73.9851615
1300,Duane St & Hudson St,1,37,40.71703,-74.00925
1301,W 48 St &  Rockefeller Plaza,0,50,40.75776935448309,-73.97929430007935
1302,Washington Square E,0,58,40.73049393,-73.9957214
1303,Sterling Pl & 5 Ave,12,15,40.678970070475735,-73.97855266928671
1304,W 42 St & 8 Ave,25,9,40.7575699,-73.99098507
1305,W 47 St & 6 Ave,0,64,40.758397,-73.98255
1306,Broadway & W 41 St,0,51,40.75513557,-73.98658032
1307,E 5 St & Ave A,27,14,40.72479007746337,-73.98430064320564
1308,E 167 St & Clay Ave,27,2,40.83094,-73.91125
1309,W 12 St & Hudson St,24,11,40.73752993301071,-74.00558933615685
1310,Ogden Ave & W 164 St,5,14,40.832812,-73.929372
1311,Broadway & Morris St,18,48,40.705945132708806,-74.01321887969969
1312,W 34 St & Hudson Blvd E,1,50,40.75516719072139,-74.00059908628464
1313,West Broadway & Watts St,21,10,40.72323,-74.00314
1314,Greene St & Prince St,11,31,40.72511734422387,-73.99930492043495
1315,Washington St & Laight St,11,0,40.72231,-74.0106
1316,Fairmount Ave,1,15,40.72572613742557,-74.07195925712585
1317,Stevens - River Ter & 6 St,1,17,40.74313282710551,-74.02698867022991
1318,South St & Pike St,31,2,40.70991806921533,-73.99161100387573
1319,E 10 St & 2 Ave,30,3,40.72970805644994,-73.9865979552269
1320,7 Ave S & Bleecker St,28,56,40.73213896287381,-74.00363802909851
1321,6 Ave & Walker St,6,27,40.7197920901383,-74.0052238852195
1322,W 56 St & 6 Ave,0,47,40.76340613,-73.97722479
1323,Rutgers St & Henry St,19,19,40.71332151208186,-73.99009689688683
1324,Water St &  Fletcher St,40,36,40.706410755236135,-74.00559738278389
1325,Hoe Ave & Jennings St,10,10,40.832171,-73.889686
1326,Grand Concourse & E 144 St,8,12,40.816576,-73.927987
1327,E 26 St & 3 Ave,25,7,40.74069317733043,-73.98160636425018
1328,E 22 St & 2 Ave,27,2,40.73716919369882,-73.98122549057007
1329,31 St & Ditmars Blvd,4,16,40.776168,-73.910485
1330,W Tremont Ave & Matthewson Rd,16,1,40.853827,-73.920765
1331,E 20 St & FDR Dr,65,1,40.733208626522426,-73.9756813647
1332,W 30 St & 8 Ave,10,48,40.74965268472847,-73.9952078461647
1333,Ave A & E 14 St,24,3,40.73031071000895,-73.98047178983688
1334,Ave A & E 11 St,30,34,40.72854745023944,-73.98175925016403
1335,Central Ave & Weirfield St,6,13,40.69055,-73.91181
1336,Perry St & Greenwich Ave,20,28,40.735918,-74.000939
1337,Kenmare St & Elizabeth St,18,15,40.72054,-73.9949
1338,Orchard St & Grand St,15,15,40.717318403855785,-73.99067759513855
1339,Tiebout Ave & E Fordham Road,18,8,40.861915,-73.894831
1340,Valentine Ave & E 181 St,20,1,40.854123869116,-73.89932222664356
1341,Madison St & Montgomery St,12,4,40.713126,-73.984844
1342,Audubon Ave & W 192 St,4,17,40.85589030603889,-73.92708241939545
1343,Grand Concourse & E 175 St,10,13,40.84627592921954,-73.90931278467178
1344,Calyer St & Guernsey St,19,0,40.72755807335852,-73.95505852997303
1345,E 156 St & Courtlandt Ave,19,1,40.82123860172,-73.9173299074173
1346,W 56 St & 8 Ave,17,21,40.765959181657976,-73.98313522338867
1347,Walker St & Baxter St,13,28,40.717411,-73.999573
1348,Central Park W & W 97 St,40,0,40.79249519495111,-73.96417066463071
1349,W 111 St & 5 Ave,22,0,40.797520781247556,-73.9489397406578
1350,Myrtle Ave & Lewis Ave,5,16,40.69681963,-73.93756926
1351,W 180 St & Ft Washington Ave,7,15,40.849972,-73.938423
1352,W 35 St & 8 Ave,1,51,40.752762088742045,-73.99280458705107
1353,Driggs Ave & Lorimer St,22,5,40.72179134,-73.9504154
1354,Huron St & Franklin St,24,4,40.73266,-73.95826
1355,Broadway & E 19 St,0,39,40.73866091428551,-73.98987293243407
1356,Clark St & Henry St,9,30,40.69760127,-73.99344559
1357,Allen St & Hester St,18,92,40.71605866,-73.99190759
1358,Suydam St & St. Nicholas Ave,11,5,40.70636,-73.91945
1359,Murray St & West St,23,34,40.71503,-74.01246
1360,Stockholm St & Wilson Ave,15,1,40.699304,-73.923044
1361,Jefferson Ave & Evergreen Ave,9,7,40.68989,-73.91458
1362,E 182 St & Morris Ave,4,15,40.85670801831255,-73.90265285968779
1363,7 Ave & 17 St,7,12,40.660937794931684,-73.98680448532104
1364,University Ave & Macombs Rd,3,16,40.8496401,-73.9161206
1365,Rogers Pl & E 165 St,17,1,40.82388366441761,-73.8974027708582
1366,N Moore St & Hudson St,18,45,40.71996118117138,-74.00844320654869
1367,E Houston St & Columbia St,22,26,40.71978635452822,-73.97871628403664
1368,E 138 St & Park Ave,14,4,40.81263616769319,-73.92924964427948
1369,Prospect Ave & Vanderbilt St,17,2,40.653368,-73.976291
1370,Hoboken Terminal - River St & Hudson Pl,0,45,40.7360676564825,-74.02912706136703
1371,Wakeman Pl & Ridge Blvd,18,1,40.639421,-74.026823
1372,W 211 St & 10 Ave,15,2,40.86709406268147,-73.9172950387001
1373,Madison Ave & E 26 St,0,73,40.742684734875695,-73.98671329021454
1374,St Marks Pl & 1 Ave,25,39,40.72779126,-73.98564945
1375,Sharon St & Olive St,10,13,40.715341620424475,-73.93865078687668
1376,West End Ave & W 94 St,23,3,40.7941654,-73.974124
1377,30 Ave & 12 St,31,1,40.771717105208275,-73.93159255385399
1378,E 35 St & Madison Ave,15,31,40.74848023448579,-73.98255586624146
1379,8 Ave & W 24 St,30,3,40.74591072834279,-73.99807110428809
1380,Columbus Ave & W 95 St,30,0,40.7919557,-73.968087
1381,E 58 St & Madison Ave,3,58,40.76302594280519,-73.97209525108337
1382,8 Ave & W 16 St,0,30,40.740983,-74.001702
1383,W 13 St & 7 Ave,6,35,40.73781509,-73.99994661
1384,Van Dam St & Greenpoint Ave,10,9,40.73443564069459,-73.93790781497955
1385,Bradley Ave & Greenpoint Ave,13,7,40.73565914819229,-73.93478840589523
1386,Borden Ave & Review Ave,12,6,40.73866345465306,-73.94093804061413
1387,31 Pl & Hunters Point Ave,19,0,40.74021356884924,-73.93537044525146
1388,Skillman Ave & 43 Ave,8,7,40.74653761978055,-73.93215849995613
1389,33 St & 47 Ave,17,5,40.74283,-73.9321
1390,W 37 St & Broadway,0,81,40.75227093837409,-73.98770570755005
1391,36 St & Queens Blvd,0,20,40.74408,-73.92901
1392,Skillman Ave & Honeywell St,8,11,40.747148249032804,-73.92902433872223
1393,36 St & 47 Ave,3,15,40.742218349960964,-73.92935156822205
1394,Amsterdam Ave & W 189 St,5,10,40.85318758861975,-73.92715752124786
1395,36 St & Hunters Point Ave,11,7,40.73781699881193,-73.93024072051048
1396,34 St & 48 Ave,1,22,40.740821207823245,-73.93147185444832
1397,39 St & Queens Blvd,3,16,40.74431,-73.92601
1398,39 St & 50 Ave,12,5,40.73824937345944,-73.92737478017807
1399,43 St & Skillman Ave,15,3,40.74692675687384,-73.9208248257637
1400,39 St & 47 Ave,3,14,40.74215636827728,-73.92662644386292
1401,48 Ave & 41 St,7,12,40.73985995699164,-73.92400324344635
1402,42 Pl & Northern Blvd,7,17,40.753091,-73.920603
1403,44 St & 48 Ave,10,10,40.73941387498411,-73.92131969332695
1404,43 Ave & 42 St,12,7,40.74534682580983,-73.9219419658184
1405,43 St & 50 Ave,10,7,40.73787237950538,-73.92264068126678
1406,Kane St & Clinton St,24,3,40.6861758,-73.99645295
1407,Bergen Ave & Sip Ave,0,31,40.73100888698729,-74.06443700194359
1408,50 St & Barnett Ave,5,18,40.750097682094825,-73.91349703073502
1409,48 St & Skillman Ave,4,13,40.74622874694195,-73.91616314649582
1410,46 St & Queens Blvd,3,25,40.74349759836971,-73.91860529780388
1411,51 St & Queens Blvd,4,14,40.7429,-73.91395
1412,48 St & 50 Ave,10,9,40.73737,-73.91803
1413,51 St & 43 Ave,19,6,40.74451,-73.91412
1414,43 Ave & 47 St,6,24,40.7448062877224,-73.91728967428207
1415,W 17 St & 8 Ave,23,46,40.74177603,-74.00149746
1416,Powers St & Olive St,6,12,40.71323,-73.93894
1417,Carlton Ave & Flushing Ave,28,17,40.697787,-73.973736
1418,48 Ave & 37 St,0,19,40.74034668087185,-73.92886072397232
1419,Carlton Ave & Park Ave,15,8,40.69580705,-73.97355569
1420,39 Ave & 54 St,6,11,40.74891,-73.90899
1421,39 Ave & 56 St,6,12,40.74838,-73.90699
1422,Peck Slip & South St,17,15,40.7075188830923,-74.00108054280281
1423,9 Ave & W 204 St,22,1,40.86169883507865,-73.91855701804161
1424,Skillman Ave & 54 St,6,12,40.745502,-73.909887
1425,47 Ave & 48 St,8,10,40.74086,-73.91708
1426,53 St & Roosevelt Ave,7,12,40.74462,-73.91143
1427,39 Dr & 52 St,3,11,40.74732,-73.91197
1428,Queens Blvd & 56 St,13,4,40.74193,-73.90913
1429,57 St & 43 Ave,9,9,40.74324,-73.908
1430,54 St & 37 Ave,12,11,40.75098,-73.90799
1431,55 St & Northern Blvd,10,12,40.75326,-73.90585
1432,W 24 St & 7 Ave,15,57,40.74487634,-73.99529885
1433,Pleasant Ave & E 116 St,22,0,40.7949879,-73.9333349
1434,President St & Henry St,23,0,40.6828003,-73.99990419
1435,West Farms Rd & Boone Ave,16,4,40.8301283948092,-73.88630211353302
1436,E 118 St & 3 Ave,29,1,40.799139,-73.9389152
1437,21 St & 21 Ave,9,10,40.782465,-73.914527
1438,21 St & 23 Ave,5,14,40.778557,-73.919046
1439,39 Ave & 45 St,13,4,40.749478221834764,-73.91826465725897
1440,State St & Smith St,38,24,40.68917,-73.9886
1441,E 17 St & Broadway,0,54,40.73704984,-73.99009296
1442,E 74 St & 1 Ave,47,28,40.7689738,-73.95482273
1443,E 43 St & 2 Ave,15,33,40.75022392,-73.97121414
1444,E 118 St & Park Ave,20,5,40.8005385,-73.9419949
1445,Woodside Ave & 55 St,5,13,40.74679,-73.90893
1446,57 St & 37 Ave,10,11,40.75048,-73.90513
1447,61 St & Woodside Ave,4,16,40.74501,-73.9036
1448,Woodside Ave & 60 St,17,2,40.74521,-73.90462
1449,61 St & 39 Ave,6,22,40.7471,-73.9028
1450,Carlton Ave & St Marks Ave,6,20,40.67911856082165,-73.97176265716553
1451,E 72 St & Park Ave,21,15,40.77118287540658,-73.96409422159195
1452,Grand St & Greene St,19,19,40.72170005235607,-74.00238141417502
1453,30 St & 48 Ave,12,17,40.7413272,-73.937999
1454,E 174 St & Longfellow Ave,16,4,40.836274,-73.884308
1455,Sedgwick Ave & W Tremont Ave,7,10,40.85304455868985,-73.91830623149872
1456,Keegan Rd & 2 Ave,24,11,40.64243139706092,-74.0255355834961
1457,7 Ave & 62 St,26,2,40.63556,-74.01298
1458,Broadway & Berry St,24,3,40.71036129922581,-73.96530389785767
1459,Old Fulton St,31,5,40.70277159,-73.99383605
1460,Plaza St East & Flatbush Ave,6,54,40.673134,-73.969106
1461,Grand St & Elizabeth St,16,26,40.718822,-73.99596
1462,W 46 St & 11 Ave,20,0,40.76341379,-73.99667444
1463,8 Ave & W 49 St,14,31,40.76171227910671,-73.98655101656914
1464,62 St & 34 Ave,14,6,40.75201,-73.89986
1465,62 St & 43 Ave,6,14,40.74261,-73.903
1466,60 St & 37 Ave,4,15,40.74958,-73.90256
1467,37 Ave & 63 St,1,19,40.74893,-73.89981
1468,65 St & 35 Ave,7,18,40.75053,-73.8977
1469,East End Ave & E 86 St,21,1,40.77518615,-73.94446054
1470,Knickerbocker Ave & Moffat St,9,14,40.690434,-73.903737
1471,35 St & 21 Ave,11,12,40.776745,-73.906558
1472,31 St & Astoria Blvd,17,12,40.7699176,-73.9184057
1473,35 St & 23 Ave,9,16,40.77301508291382,-73.91119033098221
1474,65 Pl & Woodside Ave,12,5,40.74334,-73.89903
1475,41 Ave & 67 St,8,12,40.74446,-73.89764
1476,Bergen Ave & E 152 St,21,0,40.817166,-73.914737
1477,65 St & Roosevelt Ave,17,12,40.74589,-73.89915
1478,Nassau Ave & Newell St,22,29,40.724812564400175,-73.94752621650696
1479,61 St & Queens Blvd,19,5,40.74091,-73.90273
1480,61 St & Laurel Hill Blvd,19,0,40.7388,-73.90338
1481,W 17 St & 7 Ave,18,24,40.740564236339516,-73.99852573871613
1482,Church St & Worth St,22,20,40.71688538495366,-74.00650128722191
1483,Jerome Ave & W Fordham Rd,2,16,40.86294,-73.90108
1484,W 47 St & 9 Ave,28,19,40.76153045158114,-73.99007007479668
1485,York St & Marin Blvd,13,5,40.716615000830494,-74.0424120426178
1486,Broadway & W 138 St,5,22,40.82182,-73.95353
1487,E 1 St & Bowery,21,20,40.72486122254819,-73.99213135242462
1488,40 St & Queens Blvd,1,22,40.743540273428685,-73.92435193061829
1489,5 Ave & E 29 St,0,53,40.7451677,-73.98683077
1490,W 45 St & 8 Ave,19,40,40.75929124,-73.98859651
1491,Gramercy Park N & Gramercy Park E,19,22,40.73795,-73.98509
1492,44 St & Greenpoint Ave,12,13,40.741119944681465,-73.92103672027588
1493,W 55 St & 6 Ave,0,69,40.763189,-73.978434
1494,Pearl St & York St,21,33,40.70140463410644,-73.98768022656441
1495,W 56 St & 10 Ave,25,13,40.768254,-73.988639
1496,E 47 St & Park Ave,1,104,40.75510267,-73.97498696
1497,E 47 St & 1 Ave,20,46,40.75206862,-73.96784384
1498,E 44 St & 2 Ave,3,33,40.75118387463277,-73.97138714790344
1499,65 St & Broadway,8,9,40.749372273899596,-73.89738768339157
1500,Woodside Ave & 69 St,16,1,40.7428,-73.89584
1501,1 Ave & E 44 St,22,62,40.75001986,-73.96905301
1502,E 50 St & Park Ave,1,32,40.757334,-73.974235
1503,Malcolm X Blvd & DeKalb Ave,13,7,40.6938,-73.93114
1504,Lewis Ave & Greene Ave,17,2,40.68995,-73.9365
1505,2 Ave & 39 St,44,2,40.655722167971554,-74.01000827550888
1506,Monroe St & Marcus Garvey Blvd,5,11,40.686722,-73.938988
1507,Stuyvesant Ave & Gates Ave,9,13,40.68834,-73.93306
1508,Madison St & Malcolm X Blvd,20,3,40.68713,-73.93008
1509,Hancock St & Stuyvesant Ave,8,8,40.68454,-73.9322
1510,Hancock St & Malcolm X Blvd,13,5,40.68487,-73.9293
1511,Chauncey St & Stuyvesant Ave,5,18,40.68012,-73.93168
1512,Putnam Ave & Ralph Ave,14,5,40.68705,-73.92338
1513,Monroe St & Patchen Ave,11,7,40.68814,-73.92693
1514,Schermerhorn St & Hoyt St,13,21,40.6886263,-73.9851911
1515,Chauncey St & Malcolm X Blvd,9,15,40.68044,-73.92842
1516,Sumpter St & Fulton St,4,15,40.67923,-73.92588
1517,E 165 St & Jerome Ave,14,5,40.83263,-73.925101
1518,E 53 St & 3 Ave,1,32,40.75763227739443,-73.96930575370789
1519,E 7 St & Ave C,30,2,40.72412944090093,-73.97901266813278
1520,E 7 St & Ave B,51,13,40.7251285241158,-73.98131668567657
1521,E 3 St & 1 Ave,9,46,40.72467721,-73.98783413
1522,Schermerhorn St & Court St,13,40,40.6910363748993,-73.99201065301895
1523,Riverside Dr & Broadway,15,6,40.865364,-73.92791
1524,Thomas S. Boyland St & Macon St,3,17,40.68491,-73.91493
1525,Halsey St & Ralph Ave,11,6,40.68494,-73.92299
1526,Chauncey St & Howard Ave,9,12,40.68158,-73.91959
1527,Featherbed Ln & Jerome Ave,8,10,40.845505,-73.914311
1528,Townsend Ave & E 175 St,11,8,40.84741,-73.911359
1529,Buchanan Pl & Grand Ave,0,20,40.85834,-73.90626
1530,Crotona Park North & Prospect Ave,15,4,40.841092,-73.892317
1531,E 7 St & Avenue A,24,18,40.72621788,-73.98379855
1532,Thomas S. Boyland St & Marion St,1,18,40.6814658848122,-73.91415685415268
1533,MacDougal St & Rockaway Ave,1,18,40.68018,-73.91136
1534,Fulton St & Saratoga Ave,4,14,40.67853,-73.91642
1535,Somers St & Rockaway Ave,4,15,40.67872,-73.91105
1536,Thomas S. Boyland St & Fulton St,7,14,40.67854,-73.91367
1537,Van Sinderen Ave & Atlantic Ave,7,15,40.67621,-73.90351
1538,Pitt St & Stanton St,12,0,40.71926081,-73.98178024
1539,St Marks Pl & 2 Ave,21,46,40.7284186,-73.98713956
1540,W 190 St & St. Nicholas Ave,5,19,40.854788,-73.929513
1541,Liberty St & Broadway,1,59,40.70905623,-74.01043382
1542,College Ave & E 169 St,0,17,40.835122799036405,-73.91196817159653
1543,E 19 St & 3 Ave,23,11,40.73624527,-73.98473765
1544,E 58 St & 1 Ave (NE Corner),20,5,40.75892386377695,-73.96226227283478
1545,E 58 St & 1 Ave (NW Corner),30,6,40.759125,-73.962658
1546,JC Medical Center,18,3,40.71539114317,-74.04969155788422
1547,Aqueduct Ave & W 190 St,12,5,40.8649213,-73.9024238
1548,E 17 St & 2 Ave,17,24,40.73431166276575,-73.98372530937195
1549,Prospect Pl & Nostrand Ave,7,13,40.67428,-73.9503
1550,Brevoort Pl & Bedford Ave,4,19,40.68012,-73.95362
1551,Lafayette Ave & Stuyvesant Ave,6,17,40.6919925157634,-73.9325501024723
1552,Cauldwell Ave & E 158 St,8,10,40.81989,-73.908351
1553,MacDonough St & Malcolm X Blvd,3,16,40.68273,-73.92926
1554,Eastern Pkwy & Kingston Ave,8,22,40.66959,-73.94237
1555,Pacific St & Nostrand Ave,3,17,40.6776,-73.94963
1556,E 32 St & Park Ave,4,46,40.7457121,-73.98194829
1557,Whitehall St & Bridge St,10,32,40.703661705241345,-74.0131813287735
1558,Sterling Pl & New York Ave,11,11,40.67234,-73.94763
1559,Stuyvesant Ave & Hart St,7,19,40.69465,-73.9343
1560,Ralph Ave & Fulton St,9,15,40.67922,-73.92192
1561,MacDonough St & Marcy Ave,13,6,40.68078,-73.94613
1562,New York Ave & St Marks Ave,10,12,40.67514,-73.94716
1563,Herkimer St & New York Ave,1,23,40.67955,-73.94709
1564,Brooklyn Ave & Prospect Pl,8,15,40.67412,-73.94447
1565,Kingston Ave & Park Pl,12,6,40.67308,-73.94191
1566,St. Johns Pl & Kingston Ave,7,13,40.67113,-73.94222
1567,6 St & 7 Ave,1,16,40.6686627,-73.97988067
1568,9 Ave & W 39 St,18,8,40.756403523272496,-73.99410143494606
1569,Knickerbocker Ave & Hancock St,1,17,40.69385,-73.90974
1570,Decatur St & Saratoga Ave,6,15,40.68332,-73.91711
1571,Bergen St & Kingston Ave,17,2,40.6756,-73.9415
1572,Albany Ave & Park Pl,5,13,40.67297,-73.93896
1573,Bergen St & Troy Ave,8,12,40.67524,-73.93596
1574,Pacific St & Troy Ave,3,16,40.67686,-73.93607
1575,Schenectady Ave & Prospect Pl,5,14,40.67351,-73.93363
1576,Pacific St & Utica Ave,8,9,40.6767,-73.93051
1577,Eastern Pkwy & Troy Ave,6,18,40.66929,-73.93679
1578,River Ter & Warren St,42,20,40.71759894980997,-74.01587963104248
1579,E 15 St & 3 Ave,40,21,40.734232,-73.986923
1580,Main St & Plymouth St,19,21,40.703781673548306,-73.99073392152786
1581,Macon St & Howard Ave,7,13,40.68452,-73.92011
1582,Pacific St & Rochester Ave,3,15,40.67639,-73.92748
1583,St Johns Pl & Utica Ave,2,19,40.6705,-73.9308
1584,Macon St & Patchen Ave,19,0,40.68374,-73.9261
1585,Park Pl & Utica Ave,5,15,40.67242,-73.93094
1586,St Marks Ave & Rochester Ave,7,11,40.67404,-73.92772
1587,6 Ave & W 34 St,0,59,40.74964,-73.98805
1588,Eastern Pkwy & Rochester Ave,1,23,40.66846,-73.9282
1589,Sterling Pl & Schenectady Ave,15,6,40.6716,-73.93378
1590,6 Ave & W 45 St,0,63,40.756951,-73.982631
1591,Macon St & Lewis Ave,16,4,40.68282,-73.93488
1592,Bergen St & Buffalo Ave,7,13,40.6747,-73.92512
1593,Sterling Pl & Rochester Ave,10,10,40.67128,-73.92825
1594,Park Pl & Buffalo Ave,7,12,40.67202,-73.92539
1595,St Marks Ave & Ralph Ave,7,12,40.67372,-73.92199
1596,Classon Ave & St Marks Ave,14,11,40.676513,-73.959431
1597,Prospect Pl & Howard Ave,3,15,40.67261,-73.91977
1598,Market St & Henry St,23,15,40.71310702305908,-73.99446353316307
1599,Central Park West & W 72 St,37,6,40.77579376683666,-73.9762057363987
1600,Central Park West & W 68 St,4,33,40.7734066,-73.97782542
1601,31 St & Thomson Ave,35,12,40.74469738,-73.93540375
1602,8 St & Washington St,4,17,40.745983882915624,-74.02819901704788
1603,Columbus Park - Clinton St & 9 St,25,1,40.74816121065146,-74.0324530005455
1604,Howard St & Lafayette St,10,11,40.71910537,-73.99973337
1605,W 82 St & Central Park West,32,8,40.78275,-73.97137
1606,Buffalo Ave & St Johns Pl,10,8,40.67015,-73.92538
1607,Eastern Pkwy & Ralph Ave,7,14,40.66852,-73.92284
1608,Central Park West & W 76 St,22,13,40.77896784,-73.97374737
1609,Sterling Pl & Ralph Ave,3,16,40.67095,-73.92222
1610,Greenwich St & Rector St,9,30,40.70806582380646,-74.0135595202446
1611,Bergen St & Saratoga Ave,3,17,40.67423,-73.91656
1612,Pacific St & Thomas S. Boyland St,3,17,40.67568,-73.91396
1613,Herkimer St & Eastern Pkwy,9,10,40.67738,-73.90829
1614,2 Ave & 44 St,13,4,40.65230357303063,-74.01344954967499
1615,Macombs Pl & W 152 St,29,1,40.826406,-73.937948
1616,2 Ave & 43 St,7,11,40.65292829363811,-74.01286482810974
1617,Wyckoff St & 3 Ave,18,3,40.6827549,-73.98258555
1618,Underhill Ave & Pacific St,10,16,40.6804836,-73.9646795
1619,E 4 St & Ave B,32,2,40.723346832180155,-73.98265913128853
1620,E 6 St & 2 Ave,18,45,40.727378693232225,-73.98840844631195
1621,Columbus Pl & Atlantic Ave,2,18,40.67717,-73.92285
1622,Park Pl & Thomas S. Boyland St,21,2,40.67154,-73.91433
1623,3 Ave & 14 St,25,0,40.6685455,-73.99333264
1624,Fulton St & Adams St,13,33,40.692418292578466,-73.98949474096298
1625,Troy Ave & Park Pl,9,12,40.67251,-73.93642
1626,Pearl St & Hanover Square,38,25,40.7047177,-74.00926027
1627,Grove St PATH,0,41,40.71941,-74.04309
1628,Lincoln Pl & Nostrand Ave,3,19,40.67077,-73.9507
1629,Lexington Ave & Stuyvesant Ave,5,15,40.68973,-73.93353
1630,Schenectady Ave & Pacific St,6,13,40.67686,-73.93327
1631,Broadway & W 48 St,0,94,40.76017739537783,-73.98486793041229
1632,Carroll St & Rochester Ave,19,2,40.66598,-73.9284
1633,Bergen St & Mother Gaston Blvd,13,11,40.67374,-73.90852
1634,Pacific St & Smith St,25,17,40.687880939612775,-73.98939281702042
1635,Buffalo Ave & E New York Ave,21,1,40.66591,-73.92602
1636,St Johns Pl & Howard Ave,18,3,40.66992,-73.92002
1637,St Marks Ave & Thomas S. Boyland St,11,10,40.67313,-73.91387
1638,Dean St & Rockaway Ave,8,12,40.67486,-73.91123
1639,Tompkins Ave & Hopkins St,8,10,40.69957608,-73.94708417
1640,Putnam Ave & Nostrand Ave,18,0,40.68402,-73.94977
1641,Pier 40 - Hudson River Park,6,5,40.7277140777778,-74.01129573583603
1642,69 St & 38 Ave,9,15,40.74694504524519,-73.89650255441666
1643,64 St & 51 Ave,18,1,40.73577,-73.90184
1644,E 5 St & Cooper Sq,13,32,40.72769,-73.990993
1645,33 St & Queens Blvd,8,14,40.7443653191867,-73.93172398209572
1646,51 Ave & 61 St,6,13,40.73568,-73.90387
1647,Tyler Ave & Maurice Ave,17,1,40.73394,-73.90128
1648,Broadway & W 122 St,8,21,40.8120562,-73.9612547
1649,Washington Ave & E 167 St,14,3,40.829896,-73.907618
1650,Myrtle Ave & 65 St,9,7,40.70117,-73.8904
1651,E 76 St & Park Ave,1,21,40.773763,-73.96222088
1652,65 St & Otto Rd,2,17,40.70389,-73.89116
1653,Cypress Hills St & Otto Rd,5,14,40.70204,-73.89288
1654,55 Dr & Maurice Ave,11,5,40.7261,-73.90917
1655,Bleecker St & Forest Ave,7,12,40.7107,-73.90525
1656,Ave C & E 16 St,21,9,40.72984830346529,-73.97455215454102
1657,60 Pl & Linden St,6,14,40.70886,-73.90182
1658,71 Ave & Myrtle Ave,16,10,40.70067,-73.89907
1659,E 58 St & 3 Ave,0,41,40.76095756,-73.96724467
1660,Summerfield St & Cypress Ave,2,17,40.69662,-73.90056
1661,Wyckoff Ave & Cooper Ave,13,3,40.69338,-73.90061
1662,E 56 St & 3 Ave,0,72,40.75934501,-73.96759673
1663,Amory Ct & Metropolitan Ave,15,5,40.71301,-73.90968
1664,St Felix Ave & 61 St,5,13,40.69715,-73.8936
1665,Metropolitan Ave & Flushing Ave,9,10,40.71334,-73.91572
1666,Hudson Blvd W & W 36 St,2,42,40.75676475086503,-73.99971440439913
1667,67 Ave & Fresh Pond Rd,10,18,40.70575,-73.89676
1668,Cooper Ave & 65 Pl,2,19,40.69953,-73.88873
1669,E 2 St & 2 Ave,34,44,40.72502876,-73.99069656
1670,60 St & 60 Rd,4,15,40.71592232709503,-73.90601366758347
1671,59 St & 59 Rd,0,21,40.71790852734058,-73.908454477787
1672,64 St & Woodbine St,4,12,40.70809,-73.89549
1673,Fresh Pond Rd & Eliot Ave,12,6,40.71453,-73.90105
1674,57 St & Grand Ave,9,10,40.71921,-73.9124
1675,Page Pl & Grand Ave,11,9,40.71798,-73.91818
1676,57 Rd & 58 St,19,2,40.72235,-73.91215
1677,63 St & 59 Dr,18,2,40.71832,-73.90128
1678,E 43 St & Madison Ave,0,52,40.75354681867074,-73.97896572947502
1679,Amsterdam Ave & W 82 St,26,9,40.78524672,-73.97667321
1680,60 Pl & 67 Ave,0,14,40.70497,-73.89965
1681,53 St & Flushing Ave,4,14,40.71435,-73.91405
1682,Fresh Pond Rd & 69 Ave,8,20,40.70311,-73.89547
1683,Maurice Ave & 53 Dr,15,0,40.73028,-73.90421
1684,Fresh Pond Rd & Flushing Ave,4,14,40.72155,-73.90295
1685,56 Dr & 61 St,16,2,40.72368,-73.90458
1686,56 Dr & 59 St,8,10,40.72403,-73.90853
1687,57 Rd & 59 St,8,9,40.72249,-73.90854
1688,60 Ave & Fresh Pond Rd,13,6,40.71693,-73.90198
1689,Catalpa Ave & Woodward Ave,2,16,40.70229,-73.90145
1690,Grand Ave & 55 St,2,16,40.71888,-73.91427
1691,Cypress Ave & St Felix Ave,8,13,40.69559,-73.89927
1692,Palmetto St & Traffic Ave,11,10,40.70929,-73.89441
1693,Metropolitan Ave & 65 Ln,26,0,40.71225,-73.89111
1694,64 St & 53 Dr,19,0,40.72897,-73.90115
1695,Seneca Ave & Decatur St,6,14,40.69723,-73.89811
1696,Grand Ave & Remsen Pl,22,0,40.72353,-73.89967
1697,Eastern Pkwy & Brooklyn Ave,15,5,40.66939,-73.94514
1698,Eastern Pkwy & Schenectady Ave,0,24,40.66876,-73.93376
1699,Eastern Pkwy & Nostrand Ave,19,7,40.66967,-73.9503
1700,Kingston Ave & Carroll St,2,15,40.66688,-73.9425
1701,Empire Blvd & New York Ave,16,6,40.66403,-73.94769
1702,Albany Ave & Carroll St,2,15,40.6667,-73.93972
1703,Sterling St & Nostrand Ave,13,6,40.66318,-73.95076
1704,Kingston Ave & Montgomery St,5,10,40.66481,-73.94269
1705,Carroll St & Utica Ave,13,5,40.66619,-73.93162
1706,Rogers Ave & Lincoln Rd,21,1,40.66127,-73.95352
1707,Maple St & Flatbush Ave,16,6,40.66026,-73.96045
1708,Bedford Ave & Maple St,11,11,40.66035,-73.95679
1709,2 St & Park Ave,1,14,40.73915272763701,-74.0330819785595
1710,Flatbush Ave & Fenimore St,21,3,40.65798,-73.96051
1711,Lincoln Rd & Ocean Ave,16,3,40.6605,-73.9626
1712,Parkside Ave & Flatbush Ave,22,1,40.65563,-73.95968
1713,Nostrand Ave & Rutland Rd,15,1,40.6595,-73.95041
1714,Bedford Ave & Clarkson Ave,17,2,40.65519,-73.9564
1715,Winthrop St & Nostrand Ave,16,5,40.65707,-73.95005
1716,Bedford Ave & Fenimore St,14,5,40.65815,-73.95674
1717,Crown St & Rogers Ave,12,5,40.66639,-73.95346
1718,Schenectady Ave & President St,5,14,40.66732,-73.93398
1719,Patchen Ave & Bainbridge St,16,1,40.68143,-73.92565
1720,Winthrop St & Rogers Ave,16,3,40.65686,-73.95331
1721,Maple St & New York Ave,19,2,40.66104,-73.94795
1722,New York Ave & Hawthorne St,10,9,40.65794,-73.94735
1723,Maple St & Albany Ave,12,0,40.66155,-73.93974
1724,W 25 St & 9 Ave,26,29,40.747832605837715,-74.0005722643582
1725,W 20 St & 5 Ave,1,48,40.73972989238724,-73.99103969335556
1726,E New York Ave & Troy Ave,19,1,40.66227,-73.93762
1727,Midwood St & Utica Ave,17,3,40.66124,-73.93164
1728,Schenectady Ave & Maple St,12,6,40.66178,-73.93445
1729,Rutland Rd & E 45 St,12,10,40.66034,-73.93618
1730,Clarkson Ave & Utica Ave,8,12,40.65666,-73.93109
1731,Lewis Ave & Fulton St,1,17,40.67972,-73.93467
1732,Fulton St & Williams Ave,12,5,40.67709,-73.9008
1733,Degraw St & 3 Ave,32,1,40.67977,-73.9847
1734,50 Ave & 65 St,17,0,40.73707,-73.90077
1735,56 St & Arnold Ave,8,11,40.71484,-73.909
1736,Eliot Ave & 60 Ln,11,10,40.71391,-73.90299
1737,57 St & 7 Ave,9,11,40.638566,-74.010147
1738,Walton Ave & E 176 St,17,5,40.84833,-73.90971
1739,Lafayette St & Grand St,21,53,40.72028,-73.99879
1740,Exchange Pl,1,25,40.71636596185077,-74.034343957901
1741,23 St & 31 Ave,16,0,40.76663971723091,-73.9286595582962
1742,Pacific St & Ralph Ave,2,15,40.67607,-73.92171
1743,Goble Pl & Macombs Rd,16,1,40.844075,-73.917256
1744,E 81 St & 1 Ave,25,1,40.77377781072322,-73.95197331905365
1745,Wythe Ave & N 13 St,31,11,40.722767,-73.957021
1746,7 Ave & W 55 St,2,59,40.764126,-73.980973
1747,W 54 St & 6 Ave,0,59,40.761865,-73.977242
1748,Greenpoint Ave & West St,20,11,40.729803,-73.959099
1749,Driggs Ave & S 2 St,19,6,40.712628,-73.960575
1750,31 Ave & 30 St,12,5,40.7647,-73.9240312
1751,Ash St & Manhattan Ave,28,3,40.738095,-73.954867
1752,N 5 St & Wythe Ave,26,12,40.718389,-73.961501
1753,Eagle St & Manhattan Ave,20,13,40.735217,-73.954926
1754,N 7 St & Driggs Ave,3,47,40.716967,-73.956388
1755,S 2 St & Kent Ave,40,2,40.714731,-73.966612
1756,57 St & Woodside Ave,11,8,40.74578861252213,-73.9072778339874
1757,N 5 St & Northside Piers,22,10,40.719876,-73.963865
1758,Broadway & Kent Ave,32,0,40.710888,-73.968329
1759,S 4 St & Roebling St,13,23,40.710709,-73.959724
